name	normalname	country	latitude	longitude	population
les Escaldes	les Escaldes	AD	42.50729	1.53414	15853
Andorra la Vella	Andorra la Vella	AD	42.50779	1.52109	20430
Umm al Qaywayn	Umm al Qaywayn	AE	25.56473	55.55517	44411
Ras al-Khaimah	Ras al-Khaimah	AE	25.78953	55.9432	115949
Khawr Fakkān	Khawr Fakkān	AE	25.33132	56.34199	33575
Dubai	Dubai	AE	25.0657	55.17128	1137347
Dibba Al-Fujairah	Dibba Al-Fujairah	AE	25.59246	56.26176	30000
Dibba Al-Hisn	Dibba Al-Hisn	AE	25.61955	56.27291	26395
Sharjah	Sharjah	AE	25.33737	55.41206	543733
Ar Ruways	Ar Ruways	AE	24.11028	52.73056	16000
Al Fujayrah	Al Fujayrah	AE	25.11641	56.34141	62415
Al Ain	Al Ain	AE	24.19167	55.76056	408733
Ajman	Ajman	AE	25.41111	55.43504	226172
Adh Dhayd	Adh Dhayd	AE	25.28812	55.88157	24716
Abu Dhabi	Abu Dhabi	AE	24.46667	54.36667	603492
Zaranj	Zaranj	AF	30.95962	61.86037	49851
Taloqan	Taloqan	AF	36.73605	69.53451	64256
Shīnḏanḏ	Shīnḏanḏ	AF	33.30294	62.1474	29264
Shibirghān	Shibirghān	AF	36.66757	65.7529	55641
Shahrak	Shahrak	AF	34.10737	64.3052	15967
Sar-e Pul	Sar-e Pul	AF	36.21544	65.93249	52121
Sang-e Chārak	Sang-e Chārak	AF	35.84972	66.43694	15377
Aībak	Aībak	AF	36.26468	68.01551	47823
Rustāq	Rustāq	AF	37.12604	69.83045	25636
Qarqīn	Qarqīn	AF	37.41853	66.04358	15018
Qarāwul	Qarāwul	AF	37.21959	68.7802	24544
Pul-e Khumrī	Pul-e Khumrī	AF	35.94458	68.71512	56369
Paghmān	Paghmān	AF	34.58787	68.95091	49157
Nahrīn	Nahrīn	AF	36.0649	69.13343	22363
Maymana	Maymana	AF	35.92139	64.78361	75900
Mehtar Lām	Mehtar Lām	AF	34.67139	70.20944	17345
Mazār-e Sharīf	Mazār-e Sharīf	AF	36.70904	67.11087	303282
Lashkar Gāh	Lashkar Gāh	AF	31.59382	64.37161	43934
Kushk	Kushk	AF	33.29565	61.95221	16952
Kunduz	Kunduz	AF	36.72895	68.857	161902
Khōst	Khōst	AF	33.33951	69.92041	96123
Khulm	Khulm	AF	36.69736	67.69826	64933
Khāsh	Khāsh	IR	28.22107	61.21582	69603
Khanabad	Khanabad	AF	36.6825	69.11556	71531
Karukh	Karukh	AF	34.48108	62.5863	17484
Kandahār	Kandahār	AF	31.61332	65.71013	391190
Kabul	Kabul	AF	34.52813	69.17233	3043532
Jalālābād	Jalālābād	AF	34.42647	70.45153	200331
Jabal os Saraj	Jabal os Saraj	AF	35.11833	69.23778	15032
Herāt	Herāt	AF	34.34817	62.19967	272806
Ghormach	Ghormach	AF	35.73062	63.78264	30000
Ghazni	Ghazni	AF	33.55391	68.42096	141000
Gereshk	Gereshk	AF	31.82089	64.57005	43588
Gardēz	Gardēz	AF	33.59744	69.22592	103601
Fayzabad	Fayzabad	AF	37.11664	70.58002	44421
Farah	Farah	AF	32.37451	62.11638	43561
Kafir Qala	Kafir Qala	AF	34.66667	61.06667	18086
Charikar	Charikar	AF	35.01361	69.17139	53676
Barakī Barak	Barakī Barak	AF	33.96744	68.9492	22305
Bāmyān	Bāmyān	AF	34.82156	67.82734	61863
Balkh	Balkh	AF	36.75635	66.8972	114883
Baghlān	Baghlān	AF	36.13068	68.70829	108449
Ārt Khwājah	Ārt Khwājah	AF	37.08571	69.47958	18623
Āsmār	Āsmār	AF	35.03333	71.35809	15708
Asadābād	Asadābād	IR	34.78241	48.11853	59617
Andkhōy	Andkhōy	AF	36.95293	65.12376	29208
Bāzārak	Bāzārak	AF	35.31292	69.51519	65000
Markaz-e Woluswalī-ye Āchīn	Markaz-e Woluswalī-ye Āchīn	AF	34.12583	70.70778	15098
Saint John’s	Saint John’s	AG	17.11717	-61.84573	24226
The Valley	The Valley	AI	18.21704	-63.05783	2035
Sarandë	Sarandë	AL	39.87556	20.00528	15147
Kukës	Kukës	AL	42.07694	20.42194	17832
Korçë	Korçë	AL	40.61861	20.78083	58259
Gjirokastër	Gjirokastër	AL	40.07583	20.13889	23437
Elbasan	Elbasan	AL	41.1125	20.08222	100903
Burrel	Burrel	AL	41.61028	20.00889	15405
Vlorë	Vlorë	AL	40.46667	19.48972	89546
Tirana	Tirana	AL	41.3275	19.81889	374801
Shkodër	Shkodër	AL	42.06828	19.51258	88245
Patos Fshat	Patos Fshat	AL	40.64278	19.65083	22679
Lushnjë	Lushnjë	AL	40.94194	19.705	41469
Lezhë	Lezhë	AL	41.78361	19.64361	18695
Laç	Laç	AL	41.63556	19.71306	24825
Kuçovë	Kuçovë	AL	40.80028	19.91667	18166
Krujë	Krujë	AL	41.50917	19.79278	21286
Kavajë	Kavajë	AL	41.18556	19.55694	29354
Fier	Fier	AL	40.72389	19.55611	56297
Durrës	Durrës	AL	41.32306	19.44139	122034
Berat	Berat	AL	40.70583	19.95222	46866
Kapan	Kapan	AM	39.20755	46.40576	33160
Goris	Goris	AM	39.51288	46.33816	20379
Hats’avan	Hats’avan	AM	39.46405	45.97047	15208
Artashat	Artashat	AM	39.96144	44.54447	20562
Ararat	Ararat	AM	39.83069	44.70569	28832
Yerevan	Yerevan	AM	40.18111	44.51361	1093485
Ejmiatsin	Ejmiatsin	AM	40.16557	44.29462	49513
Spitak	Spitak	AM	40.83221	44.26731	15059
Sevan	Sevan	AM	40.5484	44.94868	17083
Masis	Masis	AM	40.06762	44.43591	18911
Vanadzor	Vanadzor	AM	40.80456	44.4939	101098
Gavarr	Gavarr	AM	40.35398	45.12386	21680
Hrazdan	Hrazdan	AM	40.49748	44.7662	40795
Armavir	Armavir	RU	44.9892	41.1234	199548
Gyumri	Gyumri	AM	40.7942	43.84528	148381
Ashtarak	Ashtarak	AM	40.2991	44.36204	18779
Abovyan	Abovyan	AM	40.26741	44.62656	35673
Saurimo	Saurimo	AO	-9.66078	20.39155	40498
Lucapa	Lucapa	AO	-8.41915	20.74466	20115
Luau	Luau	AO	-10.70727	22.22466	18465
Uíge	Uíge	AO	-7.60874	15.06131	60008
Soio	Soio	AO	-6.1349	12.36894	67491
Nzeto	Nzeto	AO	-7.23116	12.8666	18352
N’dalatando	N’dalatando	AO	-9.29782	14.91162	383100
Mbanza Congo	Mbanza Congo	AO	-6.26703	14.2401	24220
Malanje	Malanje	AO	-9.54015	16.34096	87046
Luanda	Luanda	AO	-8.83682	13.23432	2776168
Caxito	Caxito	AO	-8.57848	13.66425	28224
Cabinda	Cabinda	AO	-5.55	12.2	66020
Sumbe	Sumbe	AO	-11.20605	13.84371	33277
Namibe	Namibe	AO	-15.19611	12.15222	80149
Menongue	Menongue	AO	-14.6585	17.69099	32203
Luena	Luena	AO	-11.78333	19.91667	21115
Lubango	Lubango	AO	-14.91717	13.4925	102541
Longonjo	Longonjo	AO	-12.90667	15.25333	24346
Lobito	Lobito	AO	-12.3644	13.53601	207932
Cuito	Cuito	AO	-12.38333	16.93333	113624
Huambo	Huambo	AO	-12.77611	15.73917	226145
Catumbela	Catumbela	AO	-12.43002	13.54677	16977
Catabola	Catabola	AO	-12.15	17.28333	18855
Camacupa	Camacupa	AO	-12.01667	17.48333	19150
Caluquembe	Caluquembe	AO	-13.78333	14.68333	30300
Caála	Caála	AO	-12.8525	15.56056	21205
Benguela	Benguela	AO	-12.57626	13.40547	151226
Zárate	Zárate	AR	-34.09814	-59.02858	88781
Villa Ocampo	Villa Ocampo	AR	-28.48752	-59.35515	19101
Villa Lugano	Villa Lugano	AR	-34.67907	-58.47263	114000
Villaguay	Villaguay	AR	-31.8653	-59.02689	32027
Villa Gesell	Villa Gesell	AR	-37.26394	-56.97304	23257
Tigre	Tigre	AR	-34.42603	-58.57962	31106
Tandil	Tandil	AR	-37.32167	-59.13316	104325
Santo Tomé	Santo Tomé	AR	-31.66274	-60.7653	59072
Santa Elena	Santa Elena	EC	-2.22622	-80.85873	42214
San Pedro	San Pedro	PH	14.3595	121.0473	270216
San Luis del Palmar	San Luis del Palmar	AR	-27.5079	-58.55454	15347
San Javier	San Javier	ES	37.80626	-0.83736	31432
San Isidro	San Isidro	AR	-34.47145	-58.50776	45190
Saladas	Saladas	AR	-28.25384	-58.62591	18349
Retiro	Retiro	ES	40.41317	-3.68307	126058
Resistencia	Resistencia	AR	-27.46056	-58.98389	387158
Reconquista	Reconquista	AR	-29.15	-59.65	90184
Quilmes	Quilmes	AR	-34.72418	-58.25265	518788
Puerto Rico	Puerto Rico	AR	-26.79598	-55.02402	17491
Puerto Iguazú	Puerto Iguazú	AR	-25.59912	-54.57355	32038
Puerto Esperanza	Puerto Esperanza	AR	-26.01517	-54.67306	15579
Puerto Eldorado	Puerto Eldorado	AR	-26.40843	-54.69463	54189
Posadas	Posadas	AR	-27.36708	-55.89608	323739
Pontevedra	Pontevedra	ES	42.431	-8.64435	81576
Pirané	Pirané	AR	-25.73239	-59.10879	19124
Paso de los Libres	Paso de los Libres	AR	-29.71251	-57.08771	43805
Oberá	Oberá	AR	-27.48706	-55.11994	56528
Necochea	Necochea	AR	-38.5545	-58.73961	80478
Morón	Morón	AR	-34.65344	-58.61975	319934
Monte Caseros	Monte Caseros	AR	-30.25359	-57.63626	24671
Montecarlo	Montecarlo	AR	-26.5662	-54.757	22229
Mercedes	Mercedes	AR	-34.65145	-59.43068	52949
Mar del Plata	Mar del Plata	AR	-38.00228	-57.55754	553935
Luján	Luján	AR	-34.57028	-59.105	81749
La Plata	La Plata	AR	-34.92145	-57.95453	694167
La Paz	La Paz	BO	-16.5	-68.15	812799
Jardín América	Jardín América	AR	-27.04346	-55.22698	24905
Gualeguaychú	Gualeguaychú	AR	-33.00937	-58.51722	78676
Gualeguay	Gualeguay	AR	-33.14156	-59.30966	33120
Goya	Goya	AR	-29.14395	-59.2651	70245
Gobernador Ingeniero Valentín Virasoro	Gobernador Ingeniero Valentín Virasoro	AR	-28.05	-56.03333	28756
General José de San Martín	General José de San Martín	AR	-26.53743	-59.34158	31758
Garupá	Garupá	AR	-27.48171	-55.82921	28814
Formosa	Formosa	AR	-26.17753	-58.17814	221383
Fontana	Fontana	US	34.09223	-117.43505	196069
Federal	Federal	AR	-30.95465	-58.78326	16333
Esquina	Esquina	AR	-30.01444	-59.52719	26399
El Soberbio	El Soberbio	AR	-27.29847	-54.19877	19571
Dolores	Dolores	AR	-36.31321	-57.67918	25190
Curuzú Cuatiá	Curuzú Cuatiá	AR	-29.79171	-58.0546	36390
Corrientes	Corrientes	AR	-27.4806	-58.8341	339067
Concordia	Concordia	AR	-31.39296	-58.02089	145210
Concepción del Uruguay	Concepción del Uruguay	AR	-32.48249	-58.23722	67895
Colegiales	Colegiales	AR	-34.57365	-58.44924	57000
Chajarí	Chajarí	AR	-30.75048	-57.97962	30655
Campana	Campana	AR	-34.16874	-58.95914	81612
Buenos Aires	Buenos Aires	AR	-34.61315	-58.37723	13076300
Barranqueras	Barranqueras	AR	-27.48132	-58.93925	50823
Azul	Azul	AR	-36.77698	-59.85854	53941
Avellaneda	Avellaneda	AR	-29.11761	-59.65834	23077
Aristóbulo del Valle	Aristóbulo del Valle	AR	-27.09625	-54.89626	20683
Zapala	Zapala	AR	-38.89916	-70.05442	31534
Yerba Buena	Yerba Buena	AR	-26.81667	-65.31667	50783
Villa Regina	Villa Regina	AR	-39.1	-67.06667	31209
Villa Paula de Sarmiento	Villa Paula de Sarmiento	AR	-31.4933	-68.53838	19092
Villa María	Villa María	AR	-32.40751	-63.24016	92453
Villa Dolores	Villa Dolores	AR	-31.94585	-65.18958	28009
Villa Constitución	Villa Constitución	AR	-33.22778	-60.3297	44271
Villa Carlos Paz	Villa Carlos Paz	AR	-31.42414	-64.49778	69451
Villa Ángela	Villa Ángela	AR	-27.57383	-60.71526	43511
Villa Allende	Villa Allende	AR	-31.29458	-64.29538	21683
Viedma	Viedma	AR	-40.81345	-62.99668	48940
Victoria	Victoria	CA	48.43294	-123.3693	289625
Vera	Vera	AR	-29.4593	-60.21261	19797
Venado Tuerto	Venado Tuerto	AR	-33.74556	-61.96885	72340
Veinticinco de Mayo	Veinticinco de Mayo	AR	-35.4323	-60.17271	24668
Ushuaia	Ushuaia	AR	-54.8	-68.3	58028
Unquillo	Unquillo	AR	-31.23073	-64.31615	15369
Tres Isletas	Tres Isletas	AR	-26.34067	-60.43207	24747
Tres Arroyos	Tres Arroyos	AR	-38.37394	-60.27978	47136
Trelew	Trelew	AR	-43.24895	-65.30505	93442
Termas de Río Hondo	Termas de Río Hondo	AR	-27.49362	-64.85972	27838
Tartagal	Tartagal	AR	-22.51637	-63.80131	60819
Tafí Viejo	Tafí Viejo	AR	-26.73201	-65.25921	48459
Sunchales	Sunchales	AR	-30.94404	-61.56148	18757
Santiago del Estero	Santiago del Estero	AR	-27.79511	-64.26149	354692
Santa Rosa	Santa Rosa	PH	14.31222	121.11139	216650
Santa Lucía	Santa Lucía	ES	27.91174	-15.54071	63637
Santa Fe de la Vera Cruz	Santa Fe de la Vera Cruz	AR	-31.63333	-60.7	489505
San Salvador de Jujuy	San Salvador de Jujuy	AR	-24.19457	-65.29712	305891
San Ramón de la Nueva Orán	San Ramón de la Nueva Orán	AR	-23.13705	-64.32426	74059
San Rafael	San Rafael	AR	-34.61772	-68.33007	109163
San Nicolás de los Arroyos	San Nicolás de los Arroyos	AR	-33.33578	-60.22523	127742
San Miguel de Tucumán	San Miguel de Tucumán	AR	-26.82414	-65.2226	781023
San Martín de los Andes	San Martín de los Andes	AR	-40.15789	-71.35337	23519
San Martín	San Martín	AR	-33.08103	-68.46814	82549
San Luis	San Luis	AR	-33.29501	-66.33563	183982
San Justo	San Justo	AR	-30.78913	-60.59189	21809
San Juan	San Juan	AR	-31.5375	-68.53639	447048
San José de Jáchal	San José de Jáchal	AR	-30.24057	-68.74693	21018
San Francisco	San Francisco	US	37.77493	-122.41942	805235
San Fernando del Valle de Catamarca	San Fernando del Valle de Catamarca	AR	-28.46957	-65.78524	188812
San Antonio Oeste	San Antonio Oeste	AR	-40.73193	-64.94769	16966
Salta	Salta	AR	-24.7859	-65.41166	512686
Rufino	Rufino	AR	-34.26827	-62.71262	18361
Rosario	Rosario	AR	-32.94682	-60.63932	1173533
Río Tercero	Río Tercero	AR	-32.17301	-64.11405	53389
Río Gallegos	Río Gallegos	AR	-51.62261	-69.21813	85700
Río Cuarto	Río Cuarto	AR	-33.13067	-64.34992	153757
Río Ceballos	Río Ceballos	AR	-31.16486	-64.32241	16632
Rawson	Rawson	AR	-43.30016	-65.10228	26335
Rafaela	Rafaela	AR	-31.25033	-61.4867	88713
Quitilipi	Quitilipi	AR	-26.86913	-60.21683	32083
Punta Alta	Punta Alta	AR	-38.87588	-62.07359	57209
Puerto Madryn	Puerto Madryn	AR	-42.7692	-65.03851	64555
Presidencia Roque Sáenz Peña	Presidencia Roque Sáenz Peña	AR	-26.78522	-60.43876	81879
Pocito	Pocito	AR	-31.68333	-68.58333	40969
Plottier	Plottier	AR	-38.96667	-68.23333	25186
Pergamino	Pergamino	AR	-33.88995	-60.57357	87652
Pérez	Pérez	AR	-32.99835	-60.76791	24436
Paraná	Paraná	AR	-31.73197	-60.5238	262295
Palpalá	Palpalá	AR	-24.25647	-65.21163	48199
Olavarría	Olavarría	AR	-36.89272	-60.32254	86320
Nueve de Julio	Nueve de Julio	AR	-35.44437	-60.88313	34718
Neuquén	Neuquén	AR	-38.95161	-68.0591	242092
Morteros	Morteros	AR	-30.71164	-61.99862	15129
Monteros	Monteros	AR	-27.16741	-65.49832	23771
Mendoza	Mendoza	AR	-32.89084	-68.82717	876884
Marcos Juárez	Marcos Juárez	AR	-32.6978	-62.10672	24226
Machagai	Machagai	AR	-26.92614	-60.04955	28070
Lincoln	Lincoln	US	40.8	-96.66696	258379
Libertador General San Martín	Libertador General San Martín	AR	-23.80644	-64.78757	49267
Las Breñas	Las Breñas	AR	-27.08966	-61.08161	26955
La Rioja	La Rioja	AR	-29.41105	-66.85067	162620
La Falda	La Falda	AR	-31.08841	-64.48987	15112
Laboulaye	Laboulaye	AR	-34.12662	-63.39119	19908
Junín	Junín	AR	-34.58382	-60.94332	85007
Joaquín V. González	Joaquín V. González	AR	-25.08333	-64.18333	19185
Jesús María	Jesús María	MX	21.96111	-102.34333	43012
Granadero Baigorria	Granadero Baigorria	AR	-32.85683	-60.71754	32427
Gobernador Gálvez	Gobernador Gálvez	AR	-33.03016	-60.64045	74650
General Roca	General Roca	AR	-39.03333	-67.58333	73212
General Pinedo	General Pinedo	AR	-27.31667	-61.28333	15741
General Pico	General Pico	AR	-35.65662	-63.75682	57029
General Enrique Mosconi	General Enrique Mosconi	AR	-22.59588	-63.81255	19811
Gálvez	Gálvez	AR	-32.02927	-61.22103	18374
Firmat	Firmat	AR	-33.45937	-61.4832	18294
Famaillá	Famaillá	AR	-27.05413	-65.40329	30951
Esquel	Esquel	AR	-42.91147	-71.31947	28486
Esperanza	Esperanza	DO	19.58469	-70.98489	42169
Embarcación	Embarcación	AR	-23.21003	-64.09965	23961
Embalse	Embalse	AR	-32.18	-64.41809	15900
El Bolsón	El Bolsón	AR	-41.96051	-71.53336	15537
Diamante	Diamante	AR	-32.06641	-60.63837	19545
Deán Funes	Deán Funes	AR	-30.42036	-64.34984	20164
Cutral-Có	Cutral-Có	AR	-38.93424	-69.23052	47380
Cruz del Eje	Cruz del Eje	AR	-30.72644	-64.80387	28166
Crespo	Crespo	AR	-32.02873	-60.30658	18296
Cosquín	Cosquín	AR	-31.24508	-64.46563	19070
Coronel Suárez	Coronel Suárez	AR	-37.45467	-61.93343	27000
Coronda	Coronda	AR	-31.97263	-60.91983	16975
Córdoba	Córdoba	AR	-31.4135	-64.18105	1428214
Comodoro Rivadavia	Comodoro Rivadavia	AR	-45.86413	-67.49656	140850
Cipolletti	Cipolletti	AR	-38.93392	-67.99032	75078
Cinco Saltos	Cinco Saltos	AR	-38.82225	-68.06293	19819
Chivilcoy	Chivilcoy	AR	-34.89566	-60.01667	54514
Chimbas	Chimbas	AR	-31.48333	-68.53333	73829
Chilecito	Chilecito	AR	-29.16195	-67.4974	42248
Charata	Charata	AR	-27.21438	-61.18795	27813
Chacabuco	Chacabuco	AR	-34.64167	-60.47389	34587
Centenario	Centenario	AR	-38.82955	-68.1318	28956
Caucete	Caucete	AR	-31.65179	-68.28105	33609
Catriel	Catriel	AR	-37.87907	-67.7956	15169
Castelli	Castelli	AR	-25.94679	-60.61947	36588
Casilda	Casilda	AR	-33.04417	-61.16806	32002
Carcarañá	Carcarañá	AR	-32.85679	-61.15331	15619
Capitán Bermúdez	Capitán Bermúdez	AR	-32.82262	-60.71852	27060
Cañada de Gómez	Cañada de Gómez	AR	-32.81636	-61.39493	36000
Caleta Olivia	Caleta Olivia	AR	-46.43929	-67.52814	36077
Bell Ville	Bell Ville	AR	-32.62591	-62.68873	35105
Bella Vista	Bella Vista	DO	18.45539	-69.9454	175683
Bahía Blanca	Bahía Blanca	AR	-38.71959	-62.27243	276546
Arroyo Seco	Arroyo Seco	AR	-33.15489	-60.50863	20008
Arroyito	Arroyito	AR	-31.42022	-63.05002	19577
Añatuya	Añatuya	AR	-28.46064	-62.83472	20261
Alta Gracia	Alta Gracia	AR	-31.65292	-64.42826	40384
Allen	Allen	US	33.10317	-96.67055	84246
Alderetes	Alderetes	AR	-26.81667	-65.13333	38466
Albardón	Albardón	AR	-31.43722	-68.52556	20413
Aguilares	Aguilares	AR	-27.4338	-65.61427	32494
Villa Mercedes	Villa Mercedes	AR	-33.67571	-65.45783	96781
San Carlos de Bariloche	San Carlos de Bariloche	AR	-41.14557	-71.30822	95394
Pago Pago	Pago Pago	AS	-14.27806	-170.7025	11500
Wolfsberg	Wolfsberg	AT	46.84056	14.84417	25610
Wiener Neustadt	Wiener Neustadt	AT	47.8	16.25	38481
Vienna	Vienna	AT	48.20849	16.37208	1691468
Wels	Wels	AT	48.16667	14.03333	57946
Weinzierl bei Krems	Weinzierl bei Krems	AT	48.4	15.6	24092
Villach	Villach	AT	46.61028	13.85583	58882
Ternitz	Ternitz	AT	47.71565	16.03575	15153
Steyr	Steyr	AT	48.04274	14.42127	39566
Spittal an der Drau	Spittal an der Drau	AT	46.8	13.5	16363
Schwechat	Schwechat	AT	48.13333	16.46667	15711
Sankt Pölten	Sankt Pölten	AT	48.2	15.63333	49001
Salzburg	Salzburg	AT	47.79941	13.04399	150269
Saalfelden am Steinernen Meer	Saalfelden am Steinernen Meer	AT	47.42681	12.848	16119
Mödling	Mödling	AT	48.08605	16.28921	20710
Lustenau	Lustenau	AT	47.42642	9.65851	20218
Linz	Linz	AT	48.30639	14.28611	181162
Leonding	Leonding	AT	48.27965	14.2533	22736
Leoben	Leoben	AT	47.3765	15.09144	24809
Kufstein	Kufstein	AT	47.58333	12.16667	16115
Krems an der Donau	Krems an der Donau	AT	48.40921	15.61415	23932
Klosterneuburg	Klosterneuburg	AT	48.30521	16.32522	24843
Klagenfurt am Wörthersee	Klagenfurt am Wörthersee	AT	46.62472	14.30528	90610
Kapfenberg	Kapfenberg	AT	47.44458	15.29331	21819
Innsbruck	Innsbruck	AT	47.26266	11.39454	112467
Hallein	Hallein	AT	47.68333	13.1	18980
Graz	Graz	AT	47.06667	15.45	222326
Feldkirch	Feldkirch	AT	47.23306	9.6	31082
Dornbirn	Dornbirn	AT	47.41427	9.74195	43013
Bregenz	Bregenz	AT	47.50311	9.7471	27611
Braunau am Inn	Braunau am Inn	AT	48.25628	13.04343	16403
Baden	Baden	AT	48.00543	16.23264	24893
Amstetten	Amstetten	AT	48.1229	14.87206	22832
Whyalla	Whyalla	AU	-33.03268	137.56483	19645
Rockingham	Rockingham	AU	-32.27682	115.72978	108022
Port Hedland	Port Hedland	AU	-20.31215	118.61059	15044
Perth	Perth	AU	-31.95224	115.8614	1896548
Murray Bridge	Murray Bridge	AU	-35.11986	139.27345	19577
Mount Isa	Mount Isa	AU	-20.72523	139.49727	22785
Morphett Vale	Morphett Vale	AU	-35.13333	138.51667	22602
Mandurah	Mandurah	AU	-32.5269	115.7217	83294
Kwinana	Kwinana	AU	-32.23013	115.78128	30433
Kalgoorlie	Kalgoorlie	AU	-30.74614	121.4742	31107
Gosnells	Gosnells	AU	-32.081	116.0054	17277
Geraldton	Geraldton	AU	-28.77897	114.61459	26872
Gawler	Gawler	AU	-34.60251	138.74902	20006
Fremantle	Fremantle	AU	-32.05	115.76667	24835
Darwin	Darwin	AU	-12.46113	130.84185	129062
Busselton	Busselton	AU	-33.65249	115.3455	21898
Bunbury	Bunbury	AU	-33.32711	115.64137	68248
Armadale	Armadale	AU	-32.14607	116.0093	62296
Alice Springs	Alice Springs	AU	-23.69748	133.88362	25186
Albany	Albany	US	42.65258	-73.75623	97856
Adelaide	Adelaide	AU	-34.92866	138.59863	1225235
Woodridge	Woodridge	AU	-27.63333	153.1	20650
Wodonga	Wodonga	AU	-36.12179	146.88809	31605
Werribee	Werribee	AU	-37.9	144.66667	37737
Warrnambool	Warrnambool	AU	-38.38176	142.48799	33982
Wangaratta	Wangaratta	AU	-36.35846	146.32056	16845
Wagga Wagga	Wagga Wagga	AU	-35.12577	147.35375	46913
Traralgon	Traralgon	AU	-38.19528	146.5415	21960
Townsville	Townsville	AU	-19.26639	146.80569	196219
Toowoomba	Toowoomba	AU	-27.56056	151.95386	131258
Taree	Taree	AU	-31.91099	152.45387	16621
Tamworth	Tamworth	GB	52.63399	-1.69587	74129
Sydney	Sydney	AU	-33.86785	151.20732	4627345
Surfers Paradise	Surfers Paradise	AU	-28.00274	153.42999	18501
Sunnybank	Sunnybank	AU	-27.58333	153.05	16442
Sunbury	Sunbury	AU	-37.57742	144.72607	29925
Springvale	Springvale	AU	-37.94853	145.15274	19771
Southport	Southport	GB	53.64581	-3.01008	93044
Shepparton	Shepparton	AU	-36.38047	145.39867	38773
Seaford	Seaford	GB	50.77141	0.10268	22338
Saint Kilda	Saint Kilda	AU	-37.8676	144.98099	17795
Saint Albans	Saint Albans	AU	-37.73333	144.8	35091
Rockhampton	Rockhampton	AU	-23.38032	150.50595	61724
Richmond	Richmond	US	37.55376	-77.46026	204214
Reservoir	Reservoir	AU	-37.71667	145	47637
Queanbeyan	Queanbeyan	AU	-35.35493	149.232	40661
Preston	Preston	GB	53.76282	-2.70452	190687
Port Macquarie	Port Macquarie	AU	-31.43084	152.90894	41491
Orange	Orange	US	33.78779	-117.85311	136416
Nowra	Nowra	AU	-34.88422	150.60036	34479
Northcote	Northcote	AU	-37.76667	145	22920
Noble Park	Noble Park	AU	-37.96667	145.16667	28377
Newcastle	Newcastle	ZA	-27.75796	29.9318	404838
Nerang	Nerang	AU	-27.98941	153.33633	16256
Narangba	Narangba	AU	-27.20338	152.95923	16223
Mulgrave	Mulgrave	AU	-37.91667	145.2	17647
Mount Martha	Mount Martha	AU	-38.26667	145.01667	17087
Mount Gambier	Mount Gambier	AU	-37.8318	140.77919	23209
Mosman	Mosman	AU	-33.83902	151.23956	26236
Mornington	Mornington	AU	-38.21792	145.03876	22421
Morayfield	Morayfield	AU	-27.10876	152.94907	18020
Moe	Moe	AU	-38.17828	146.26099	15582
Mildura	Mildura	AU	-34.18551	142.16251	30016
Melton	Melton	AU	-37.68339	144.58543	35490
Melbourne	Melbourne	AU	-37.814	144.96332	4246375
Maryborough	Maryborough	AU	-25.54073	152.70493	21501
Marrickville	Marrickville	AU	-33.90318	151.15176	23161
Maroubra	Maroubra	AU	-33.95	151.23333	26538
Maitland	Maitland	AU	-32.73308	151.5574	67132
Mackay	Mackay	AU	-21.15345	149.16554	74219
Liverpool	Liverpool	GB	53.41058	-2.97794	468945
Lismore	Lismore	AU	-28.81354	153.2773	30086
Lilydale	Lilydale	AU	-37.75	145.35	15649
Launceston	Launceston	AU	-41.43876	147.13467	106153
Lara	Lara	AU	-38.02388	144.40617	15520
Langwarrin	Langwarrin	AU	-38.16667	145.16667	21371
Kew	Kew	AU	-37.80639	145.03086	23876
Katoomba	Katoomba	AU	-33.71977	150.30739	18593
Hobart	Hobart	AU	-42.87936	147.32941	216656
Hawthorn South	Hawthorn South	AU	-37.83333	145.05	21177
Griffith	Griffith	AU	-34.28853	146.05093	15455
Granville	Granville	AU	-33.83333	151.01667	22889
Goulburn	Goulburn	AU	-34.75155	149.72086	20940
Gold Coast	Gold Coast	AU	-28.00029	153.43088	591473
Gladstone	Gladstone	AU	-23.84852	151.25775	30489
Geelong	Geelong	AU	-38.14711	144.36069	226034
Frankston East	Frankston East	AU	-38.13333	145.13333	34457
Frankston	Frankston	AU	-38.14458	145.12291	34457
Forster	Forster	AU	-32.18136	152.51715	17591
Essendon	Essendon	AU	-37.76667	144.91667	18852
Epping	Epping	AU	-33.77271	151.08184	18969
Engadine	Engadine	AU	-34.06564	151.01266	17937
Eltham	Eltham	AU	-37.73333	145.15	18162
Echuca	Echuca	AU	-36.14057	144.75185	19457
Earlwood	Earlwood	AU	-33.95	151.1	16564
Dubbo	Dubbo	AU	-32.24295	148.60484	32327
Doncaster	Doncaster	GB	53.52285	-1.13116	67670
Devonport	Devonport	AU	-41.17695	146.35152	19317
Deception Bay	Deception Bay	AU	-27.19354	153.02631	16090
Dandenong	Dandenong	AU	-37.98333	145.2	24919
Cronulla	Cronulla	AU	-34.06251	151.14961	16754
Cranbourne	Cranbourne	AU	-38.1	145.28333	39419
Craigieburn	Craigieburn	AU	-37.6	144.95	19728
Coffs Harbour	Coffs Harbour	AU	-30.29626	153.11351	26353
Coburg	Coburg	DE	50.25937	10.96384	41901
Wollongong	Wollongong	AU	-34.424	150.89345	292190
Cessnock	Cessnock	AU	-32.83211	151.35623	16393
Castle Hill	Castle Hill	AU	-33.73333	151	35389
Carrum Downs	Carrum Downs	AU	-38.09968	145.17248	17213
Caringbah	Caringbah	AU	-34.04726	151.12051	21283
Canberra	Canberra	AU	-35.28346	149.12807	367752
Camberwell	Camberwell	AU	-37.84205	145.0694	19637
Caloundra	Caloundra	AU	-26.80346	153.12195	38706
Cairns	Cairns	AU	-16.92304	145.76625	153075
Caboolture	Caboolture	AU	-27.08465	152.9511	21478
Burnie	Burnie	AU	-41.05584	145.90375	19972
Bundaberg	Bundaberg	AU	-24.86621	152.3479	70826
Buderim	Buderim	AU	-26.68443	153.05705	15228
Brunswick	Brunswick	US	41.23811	-81.8418	34255
Broken Hill	Broken Hill	AU	-31.9652	141.4512	18430
Brisbane	Brisbane	AU	-27.46794	153.02809	2189878
Boronia	Boronia	AU	-37.86667	145.28333	20825
Blacktown	Blacktown	AU	-33.76667	150.91667	39000
Berwick	Berwick	AU	-38.03333	145.35	44779
Bendigo	Bendigo	AU	-36.75818	144.28024	100617
Bathurst	Bathurst	AU	-33.41665	149.5806	33110
Bankstown	Bankstown	AU	-33.91667	151.03333	30572
Ballarat	Ballarat	AU	-37.56622	143.84957	97937
Auburn	Auburn	US	47.30732	-122.22845	70180
Armidale	Armidale	AU	-30.50828	151.67123	22673
Albury	Albury	AU	-36.07482	146.92401	45627
Cheltenham	Cheltenham	GB	51.90006	-2.07972	103249
Randwick	Randwick	AU	-33.91439	151.24895	25819
Dee Why	Dee Why	AU	-33.75	151.3	17463
Umina	Umina	AU	-33.52314	151.31325	16059
Palmerston	Palmerston	AU	-12.48602	130.9833	25000
Logan City	Logan City	AU	-27.63917	153.10944	282673
Ferntree Gully	Ferntree Gully	AU	-37.88461	145.29539	24724
City of Parramatta	City of Parramatta	AU	-33.81667	151	19745
Malvern East	Malvern East	AU	-37.87397	145.04253	19593
St Albans	St Albans	GB	51.75	-0.33333	84561
Oranjestad	Oranjestad	AW	12.52398	-70.02703	29998
Babijn	Babijn	AW	12.53333	-69.98333	40627
Angochi	Angochi	AW	12.51667	-69.95	29442
Mariehamn	Mariehamn	AX	60.09726	19.93481	10682
Xankandi	Xankandi	AZ	39.8177	46.7528	53100
Əhmədbəyli	Əhmədbəyli	AZ	39.87867	48.39901	17242
Shushi	Shushi	AZ	39.76006	46.74989	18662
Salyan	Salyan	AZ	39.59621	48.98479	36555
Saatlı	Saatlı	AZ	39.93214	48.36892	87000
Neftçala	Neftçala	AZ	39.3768	49.247	18661
Nakhchivan	Nakhchivan	AZ	39.20889	45.41222	64754
Lankaran	Lankaran	AZ	38.75428	48.85062	240300
Imishli	Imishli	AZ	39.87095	48.05995	34178
Fizuli	Fizuli	AZ	39.60094	47.14529	26765
Dzhalilabad	Dzhalilabad	AZ	39.20963	48.49186	36259
Pushkino	Pushkino	RU	56.01722	37.86667	102816
Beylagan	Beylagan	AZ	39.77556	47.61861	15599
Astara	Astara	AZ	38.45598	48.87498	15190
Şirvan	Şirvan	AZ	39.93778	48.929	70220
Ağdam	Ağdam	AZ	39.99096	46.92736	39451
Zaqatala	Zaqatala	AZ	41.6316	46.64479	18277
Zabrat	Zabrat	AZ	40.47746	49.94174	21396
Yevlakh	Yevlakh	AZ	40.61832	47.15014	59036
Yelenendorf	Yelenendorf	AZ	40.58584	46.3189	17816
Xaçmaz	Xaçmaz	AZ	41.46426	48.80565	37175
Ujar	Ujar	AZ	40.51902	47.65423	15741
Terter	Terter	AZ	40.34179	46.93242	18185
Sumqayıt	Sumqayıt	AZ	40.58972	49.66861	265150
Qaraçuxur	Qaraçuxur	AZ	40.39667	49.97361	72989
Shamkhor	Shamkhor	AZ	40.82975	46.0178	35421
Shamakhi	Shamakhi	AZ	40.63141	48.64137	29403
Sheki	Sheki	AZ	41.19194	47.17056	63000
Sabunçu	Sabunçu	AZ	40.4425	49.94806	20996
Sabirabad	Sabirabad	AZ	40.00869	48.47701	28075
Qusar	Qusar	AZ	41.4275	48.4302	16022
Quba	Quba	AZ	41.36108	48.51341	22405
Hacıqabul	Hacıqabul	AZ	40.03874	48.94286	23102
Qazax	Qazax	AZ	41.09246	45.36561	18903
Hacı Zeynalabdin	Hacı Zeynalabdin	AZ	40.62333	49.55861	19019
Mingelchaur	Mingelchaur	AZ	40.76395	47.05953	95453
Maştağa	Maştağa	AZ	40.52983	50.00616	40092
Mardakan	Mardakan	AZ	40.49182	50.14292	15267
Lökbatan	Lökbatan	AZ	40.3256	49.73376	30694
Kyurdarmir	Kyurdarmir	AZ	40.34532	48.15085	19088
Khirdalan	Khirdalan	AZ	40.44808	49.75502	37949
Yeni Suraxanı	Yeni Suraxanı	AZ	40.43026	50.03598	16127
Geoktschai	Geoktschai	AZ	40.65055	47.74219	35348
Hövsan	Hövsan	AZ	40.37444	50.08528	36293
Ganja	Ganja	AZ	40.68278	46.36056	313300
Divichibazar	Divichibazar	AZ	41.20117	48.98712	23248
Buzovna	Buzovna	AZ	40.51903	50.11438	24795
Biny Selo	Biny Selo	AZ	40.45076	50.08686	24596
Barda	Barda	AZ	40.37577	47.12619	37372
Bilajari	Bilajari	AZ	40.4444	49.80566	42194
Baku	Baku	AZ	40.37767	49.89201	1116513
Amirdzhan	Amirdzhan	AZ	40.42639	49.98361	26798
Aghsu	Aghsu	AZ	40.57028	48.40087	17209
Ağdaş	Ağdaş	AZ	40.64699	47.4738	23528
Agdzhabedy	Agdzhabedy	AZ	40.05015	47.45937	34989
Bakıxanov	Bakıxanov	AZ	40.41894	49.96693	66686
Zenica	Zenica	BA	44.20169	17.90397	164423
Visoko	Visoko	BA	43.98889	18.17806	17890
Velika Kladuša	Velika Kladuša	BA	45.18497	15.80579	19330
Tuzla	Tuzla	BA	44.53842	18.66709	142486
Trebinje	Trebinje	BA	42.71197	18.34362	33178
Travnik	Travnik	BA	44.22637	17.66583	31127
Sarajevo	Sarajevo	BA	43.84864	18.35644	696731
Prijedor	Prijedor	BA	44.97991	16.71401	36347
Mostar	Mostar	BA	43.34333	17.80806	104518
Gradačac	Gradačac	BA	44.87851	18.42764	15659
Gračanica	Gračanica	BA	44.70307	18.3101	15758
Goražde	Goražde	BA	43.66795	18.97564	17650
Doboj	Doboj	BA	44.73179	18.08698	27235
Cazin	Cazin	BA	44.96694	15.94306	21741
Bugojno	Bugojno	BA	44.05722	17.45083	41378
Brčko	Brčko	BA	44.87278	18.80833	38968
Bosanska Krupa	Bosanska Krupa	BA	44.8825	16.15139	15193
Bijeljina	Bijeljina	BA	44.75874	19.21437	37692
Bihać	Bihać	BA	44.81694	15.87083	75641
Banja Luka	Banja Luka	BA	44.77583	17.18556	221106
Konjic	Konjic	BA	43.65126	17.96082	15950
Bridgetown	Bridgetown	BB	13.1	-59.61667	98511
Thākurgaon	Thākurgaon	BD	26.03097	88.46989	71096
Teknāf	Teknāf	BD	20.86382	92.30153	40557
Tungi	Tungi	BD	23.89154	90.40232	337579
Sylhet	Sylhet	BD	24.89904	91.87198	237000
Dohār	Dohār	BD	23.59311	90.14251	45543
Jamālpur	Jamālpur	BD	24.91965	89.94812	167900
Shibganj	Shibganj	BD	24.68501	88.15638	35961
Sātkhira	Sātkhira	BD	22.70817	89.07185	128918
Sirājganj	Sirājganj	BD	24.45771	89.70802	127481
Netrakona	Netrakona	BD	24.88352	90.72898	79016
Narsingdi	Narsingdi	BD	23.92298	90.71768	281080
Sandwīp	Sandwīp	BD	22.51409	91.45491	52152
Shāhzādpur	Shāhzādpur	BD	24.17687	89.5988	102420
Rāmganj	Rāmganj	BD	23.1006	90.84989	55241
Rājshāhi	Rājshāhi	BD	24.374	88.60114	700133
Pirojpur	Pirojpur	BD	22.57965	89.97521	54418
Panchagarh	Panchagarh	BD	26.33338	88.55777	48531
Patiya	Patiya	BD	22.29543	91.979	51360
Parbatipur	Parbatipur	BD	25.66369	88.93093	48020
Nārāyanganj	Nārāyanganj	BD	23.61352	90.50298	223622
Nālchiti	Nālchiti	BD	22.63696	90.27195	38703
Nāgarpur	Nāgarpur	BD	24.05783	89.87696	238422
Nageswari	Nageswari	BD	25.96817	89.69153	49425
Mymensingh	Mymensingh	BD	24.75636	90.40646	225126
Muktāgācha	Muktāgācha	BD	24.76484	90.25698	24684
Mirzāpur	Mirzāpur	IN	25.1449	82.56534	220029
Maulavi Bāzār	Maulavi Bāzār	BD	24.48888	91.77075	57441
Morrelgonj	Morrelgonj	BD	22.45566	89.85584	31647
Mehendiganj	Mehendiganj	BD	22.82257	90.52859	39424
Mathba	Mathba	BD	22.28616	89.95883	29760
Lalmanirhat	Lalmanirhat	BD	25.91719	89.44595	65127
Lākshām	Lākshām	BD	23.24018	91.12143	82290
Comilla	Comilla	BD	23.46186	91.18503	389411
Rangpur	Rangpur	BD	25.74664	89.25166	343122
Kushtia	Kushtia	BD	23.9028	89.11943	135724
Kālīganj	Kālīganj	BD	23.40964	89.13801	45631
Jhingergācha	Jhingergācha	BD	23.11134	89.09061	41957
Joypur Hāt	Joypur Hāt	BD	25.10147	89.02734	73068
Ishurdi	Ishurdi	BD	24.12858	89.06573	81995
Habiganj	Habiganj	BD	24.38044	91.41299	88760
Gaurnadi	Gaurnadi	BD	22.97372	90.22376	40519
Gafargaon	Gafargaon	BD	24.432	90.5585	34177
Feni	Feni	BD	23.0144	91.3966	84028
Rāipur	Rāipur	BD	23.0391	90.76808	64652
Sarankhola	Sarankhola	BD	22.31006	89.79113	36470
Dhaka	Dhaka	BD	23.7104	90.40744	10356500
Chilmāri	Chilmāri	BD	25.55613	89.67097	49736
Chhāgalnāiya	Chhāgalnāiya	BD	23.02475	91.51091	39335
Lālmohan	Lālmohan	BD	22.33774	90.73708	42220
Khagrachhari	Khagrachhari	BD	23.10787	91.97007	50364
Chhātak	Chhātak	BD	25.03858	91.6815	39218
Bhātpāra Abhaynagar	Bhātpāra Abhaynagar	BD	23.01472	89.43936	42653
Bherāmāra	Bherāmāra	BD	24.02452	88.99234	38159
Bhairab Bāzār	Bhairab Bāzār	BD	24.0524	90.9764	105457
Bāndarban	Bāndarban	BD	22.19534	92.21946	32523
Kālia	Kālia	BD	23.043	89.63094	40492
Baniachang	Baniachang	BD	24.51863	91.35787	37807
Bājitpur	Bājitpur	BD	24.21623	90.95002	34560
Badarganj	Badarganj	BD	25.67419	89.05377	32600
Narail	Narail	BD	23.15509	89.49515	55112
Tungipāra	Tungipāra	BD	22.89983	89.90326	62210
Sarishābāri	Sarishābāri	BD	24.75127	89.83126	81325
Raojān	Raojān	BD	22.53511	91.91919	25708
Pār Naogaon	Pār Naogaon	BD	24.80418	88.94875	192464
Lakshmīpur	Lakshmīpur	BD	22.9443	90.83005	61703
Kesabpur	Kesabpur	BD	22.90725	89.21954	30926
Dinājpur	Dinājpur	BD	25.62745	88.63779	206234
Uttar Char Fasson	Uttar Char Fasson	BD	22.22647	90.71275	48305
Chittagong	Chittagong	BD	22.3384	91.83168	3920222
Bera	Bera	BD	24.07821	89.63262	39604
Burhānuddin	Burhānuddin	BD	22.49518	90.72391	45670
Sātkania	Sātkania	BD	22.07639	92.04955	52005
Cox’s Bāzār	Cox’s Bāzār	BD	21.45388	91.96765	253788
Khulna	Khulna	BD	22.80979	89.56439	1342339
Bhola	Bhola	BD	22.68759	90.64403	99079
Barisāl	Barisāl	BD	22.70497	90.37013	202242
Jessore	Jessore	BD	23.16971	89.21371	243987
Pābna	Pābna	BD	24.00644	89.2372	186781
Tāngāil	Tāngāil	BD	24.24984	89.91655	180144
Bogra	Bogra	BD	24.85098	89.37108	210000
Pīrgaaj	Pīrgaaj	BD	25.85587	88.35943	34606
Nawābganj	Nawābganj	BD	24.59025	88.27444	142361
Sherpur	Sherpur	BD	25.01881	90.01751	107419
Kishorganj	Kishorganj	BD	24.43944	90.78291	90690
Manikchari	Manikchari	BD	22.83957	91.84128	24813
Bhāndāria	Bhāndāria	BD	22.48898	90.06273	30219
Fatikchari	Fatikchari	BD	22.68768	91.78123	33200
Saidpur	Saidpur	BD	25.77769	88.89169	199422
Azimpur	Azimpur	BD	23.7298	90.3854	96641
Paltan	Paltan	BD	23.73625	90.41426	84492
Zwijndrecht	Zwijndrecht	NL	51.8175	4.63333	45696
Zwevegem	Zwevegem	BE	50.81268	3.33848	23358
Zottegem	Zottegem	BE	50.86955	3.81052	24434
Zonhoven	Zonhoven	BE	50.99064	5.36819	19922
Zoersel	Zoersel	BE	51.26825	4.71296	20642
Zemst	Zemst	BE	50.98318	4.46079	21096
Zele	Zele	BE	51.06566	4.0403	20236
Zedelgem	Zedelgem	BE	51.14236	3.1368	21968
Zaventem	Zaventem	BE	50.88365	4.47298	28188
Wuustwezel	Wuustwezel	BE	51.39214	4.59546	18117
Willebroek	Willebroek	BE	51.06041	4.36019	22808
Wevelgem	Wevelgem	BE	50.8	3.16667	30954
Wetteren	Wetteren	BE	51.00526	3.88341	22930
Westerlo	Westerlo	BE	51.09049	4.91544	22579
Wervik	Wervik	BE	50.78069	3.03854	17340
Wavre	Wavre	BE	50.71717	4.60138	32112
Waterloo	Waterloo	CA	43.4668	-80.51639	97475
Waregem	Waregem	BE	50.88898	3.42756	35896
Walcourt	Walcourt	BE	50.25401	4.43796	17501
Visé	Visé	BE	50.7376	5.69907	17054
Vilvoorde	Vilvoorde	BE	50.92814	4.42938	36955
Verviers	Verviers	BE	50.58907	5.86241	52824
Turnhout	Turnhout	BE	51.32254	4.94471	39654
Tubize	Tubize	BE	50.69059	4.2009	21859
Tournai	Tournai	BE	50.60715	3.38932	67721
Torhout	Torhout	BE	51.0656	3.10085	18933
Tongeren	Tongeren	BE	50.78054	5.46484	29816
Tienen	Tienen	BE	50.80745	4.9378	31743
Tielt	Tielt	BE	50.99931	3.32707	19299
Tessenderlo	Tessenderlo	BE	51.06513	5.08856	16574
Tervuren	Tervuren	BE	50.82372	4.51418	20623
Temse	Temse	BE	51.12794	4.21372	26054
Stekene	Stekene	BE	51.2099	4.03651	16989
Stabroek	Stabroek	BE	51.33189	4.37127	17294
Soumagne	Soumagne	BE	50.61385	5.74679	15237
Soignies	Soignies	BE	50.57904	4.07129	24869
Sint-Truiden	Sint-Truiden	BE	50.81679	5.18647	37859
Sint-Pieters-Leeuw	Sint-Pieters-Leeuw	BE	50.77926	4.24355	30446
Sint-Niklaas	Sint-Niklaas	BE	51.16509	4.1437	69010
Sint-Kruis	Sint-Kruis	BE	51.21399	3.24949	16000
Sint-Katelijne-Waver	Sint-Katelijne-Waver	BE	51.06691	4.53469	19487
Sint-Gillis-Waas	Sint-Gillis-Waas	BE	51.21914	4.12374	17658
Sint-Genesius-Rode	Sint-Genesius-Rode	BE	50.74645	4.35754	17990
Seraing	Seraing	BE	50.58362	5.50115	60737
Schoten	Schoten	BE	51.25251	4.50268	33622
Schilde	Schilde	BE	51.24107	4.58336	20373
Saint-Nicolas	Saint-Nicolas	BE	50.62837	5.53243	22586
Saint-Ghislain	Saint-Ghislain	BE	50.44816	3.81886	22500
Rotselaar	Rotselaar	BE	50.95302	4.71665	15007
Ronse	Ronse	BE	50.74574	3.6005	24204
Roeselare	Roeselare	BE	50.94653	3.12269	56016
Rixensart	Rixensart	BE	50.71229	4.52529	21616
Riemst	Riemst	BE	50.80995	5.60131	15809
Ranst	Ranst	BE	51.18983	4.56533	17405
Quaregnon	Quaregnon	BE	50.44067	3.8653	18491
Puurs	Puurs	BE	51.07409	4.28844	15944
Putte	Putte	BE	51.05337	4.63263	15276
Poperinge	Poperinge	BE	50.85386	2.72659	19537
Pont-à-Celles	Pont-à-Celles	BE	50.50518	4.36887	15909
Péruwelz	Péruwelz	BE	50.50819	3.59373	16647
Peer	Peer	BE	51.1303	5.45952	15551
Overijse	Overijse	BE	50.77436	4.53461	23486
Oupeye	Oupeye	BE	50.71184	5.6468	23594
Oudenaarde	Oudenaarde	BE	50.85168	3.60891	27935
Oostkamp	Oostkamp	BE	51.15432	3.23128	21489
Ostend	Ostend	BE	51.21551	2.927	69011
Nivelles	Nivelles	BE	50.59833	4.32848	24149
Ninove	Ninove	BE	50.82776	4.02657	34795
Nijlen	Nijlen	BE	51.16096	4.67008	20792
Neerpelt	Neerpelt	BE	51.22807	5.4427	16122
Namur	Namur	BE	50.4669	4.86746	106284
Mouscron	Mouscron	BE	50.74497	3.20639	52069
Mortsel	Mortsel	BE	51.16697	4.45127	24525
Morlanwelz-Mariemont	Morlanwelz-Mariemont	BE	50.45502	4.24519	18233
Mons	Mons	BE	50.45413	3.95229	91277
Mol	Mol	BE	51.19188	5.11662	32659
Middelkerke	Middelkerke	BE	51.18532	2.82077	17789
Merelbeke	Merelbeke	BE	50.99447	3.74621	22047
Menen	Menen	BE	50.79722	3.12245	31916
Meise	Meise	BE	50.93934	4.32655	18497
Mechelen	Mechelen	BE	51.02574	4.47762	77530
Marche-en-Famenne	Marche-en-Famenne	BE	50.22678	5.34416	16856
Manage	Manage	BE	50.50312	4.23589	22196
Maldegem	Maldegem	BE	51.20737	3.44511	22092
Maasmechelen	Maasmechelen	BE	50.96545	5.69452	36251
Maaseik	Maaseik	BE	51.09802	5.78379	23684
Louvain-la-Neuve	Louvain-la-Neuve	BE	50.66829	4.61443	29521
Londerzeel	Londerzeel	BE	51.00468	4.30304	17274
Lommel	Lommel	BE	51.23074	5.31349	31993
Lokeren	Lokeren	BE	51.10364	3.99339	37567
Lochristi	Lochristi	BE	51.09644	3.83194	19696
Lille	Lille	FR	50.63297	3.05858	228328
Lier	Lier	BE	51.13128	4.57041	33272
Liège	Liège	BE	50.63373	5.56749	182597
Leuven	Leuven	BE	50.87959	4.70093	92892
Lessines	Lessines	BE	50.71104	3.83579	17687
Lede	Lede	BE	50.96626	3.98594	16813
Lebbeke	Lebbeke	BE	51.00464	4.13457	17372
Lanaken	Lanaken	BE	50.89318	5.6468	24771
La Louvière	La Louvière	BE	50.48657	4.18785	76668
Kortrijk	Kortrijk	BE	50.82803	3.26487	73879
Kortenberg	Kortenberg	BE	50.88982	4.54353	17774
Kontich	Kontich	BE	51.13213	4.44706	20290
Koksijde	Koksijde	BE	51.11642	2.63772	21027
Knokke-Heist	Knokke-Heist	BE	51.35	3.26667	33781
Kasterlee	Kasterlee	BE	51.24118	4.96651	17765
Kapellen	Kapellen	BE	51.31377	4.43539	26410
Kalmthout	Kalmthout	BE	51.38442	4.47556	17485
Izegem	Izegem	BE	50.91396	3.21378	26382
Ieper	Ieper	BE	50.85114	2.88569	35089
Huy	Huy	BE	50.51894	5.23284	19973
Houthalen	Houthalen	BE	51.03427	5.37429	30050
Hoogstraten	Hoogstraten	BE	51.40029	4.76034	18524
Hoboken	Hoboken	US	40.74399	-74.03236	50005
Heusden	Heusden	NL	51.73417	5.13889	42882
Herzele	Herzele	BE	50.88681	3.89014	16523
Herve	Herve	BE	50.64083	5.79353	16544
Herstal	Herstal	BE	50.66415	5.62346	36503
Herentals	Herentals	BE	51.17655	4.83248	25912
Herent	Herent	BE	50.90861	4.67056	19218
Helchteren	Helchteren	BE	51.05591	5.38244	30050
Heist-op-den-Berg	Heist-op-den-Berg	BE	51.07537	4.72827	37873
Hasselt	Hasselt	BE	50.93106	5.33781	69222
Harelbeke	Harelbeke	BE	50.85343	3.30935	25978
Hamme	Hamme	BE	51.09822	4.13705	22891
Halle	Halle	BE	50.73385	4.23454	34479
Haaltert	Haaltert	BE	50.90634	4.00093	17129
Grimbergen	Grimbergen	BE	50.93409	4.37213	33561
Geraardsbergen	Geraardsbergen	BE	50.77343	3.88223	30807
Gent	Gent	BE	51.05	3.71667	231493
Genk	Genk	BE	50.965	5.50082	63666
Gembloux	Gembloux	BE	50.56149	4.69889	21676
Geel	Geel	BE	51.16557	4.98917	34697
Frameries	Frameries	BE	50.40578	3.89603	20598
Fleurus	Fleurus	BE	50.48351	4.55006	22080
Fléron	Fléron	BE	50.61516	5.68062	15994
Flémalle-Haute	Flémalle-Haute	BE	50.59994	5.44471	25144
Evergem	Evergem	BE	51.10529	3.704	31615
Eupen	Eupen	BE	50.6279	6.03647	18029
Essen	Essen	DE	51.45657	7.01228	593085
Eeklo	Eeklo	BE	51.18703	3.55654	19116
Edegem	Edegem	BE	51.15662	4.44504	21839
Duffel	Duffel	BE	51.09554	4.50903	16011
Dour	Dour	BE	50.39583	3.77792	16861
Dilbeek	Dilbeek	BE	50.84799	4.25972	39482
Diksmuide	Diksmuide	BE	51.03248	2.86384	15515
Diest	Diest	BE	50.98923	5.05062	22516
Destelbergen	Destelbergen	BE	51.05952	3.79899	16853
Dendermonde	Dendermonde	BE	51.02869	4.10106	43055
Denderleeuw	Denderleeuw	BE	50.88506	4.07601	16969
Deinze	Deinze	BE	50.98175	3.53096	29815
Courcelles	Courcelles	BE	50.46379	4.3747	29473
Colfontaine	Colfontaine	BE	50.4141	3.85569	19964
Chaudfontaine	Chaudfontaine	BE	50.5828	5.6341	20960
Châtelet	Châtelet	BE	50.40338	4.52826	35238
Charleroi	Charleroi	BE	50.41136	4.44448	200132
Brussels	Brussels	BE	50.85045	4.34878	1019022
Brugge	Brugge	BE	51.20892	3.22424	116709
Brecht	Brecht	BE	51.35024	4.63829	25908
Brasschaat	Brasschaat	BE	51.2912	4.49182	37040
Braine-le-Comte	Braine-le-Comte	BE	50.60979	4.14658	20133
Braine-l'Alleud	Braine-l'Alleud	BE	50.68363	4.36784	37512
Boussu	Boussu	BE	50.43417	3.7944	20058
Bornem	Bornem	BE	51.09716	4.24364	19997
Boom	Boom	BE	51.09242	4.3717	15810
Blankenberge	Blankenberge	BE	51.31306	3.13227	18230
Binche	Binche	BE	50.41155	4.16469	32030
Bilzen	Bilzen	BE	50.87325	5.5184	29622
Beveren	Beveren	BE	51.21187	4.25633	45179
Beringen	Beringen	BE	51.04954	5.22606	40930
Beersel	Beersel	BE	50.76589	4.3002	23228
Beerse	Beerse	BE	51.31927	4.85304	16208
Balen	Balen	BE	51.16837	5.17027	19978
Ath	Ath	BE	50.62937	3.77801	26681
Asse	Asse	BE	50.91011	4.19836	28985
Arlon	Arlon	BE	49.68333	5.81667	26179
Antwerpen	Antwerpen	BE	51.21989	4.40346	459805
Ans	Ans	BE	50.6623	5.52029	27297
Andenne	Andenne	BE	50.48941	5.09513	24055
Aarschot	Aarschot	BE	50.98715	4.83695	27656
Aalter	Aalter	BE	51.09017	3.44693	18802
Aalst	Aalst	BE	50.93604	4.0355	77534
Zorgo	Zorgo	BF	12.24922	-0.61527	23892
Yako	Yako	BF	12.9591	-2.26075	22904
Tougan	Tougan	BF	13.0725	-3.0694	17590
Tenkodogo	Tenkodogo	BF	11.78	-0.36972	37658
Réo	Réo	BF	12.31963	-2.47094	37535
Pô	Pô	BF	11.16972	-1.145	17924
Ouahigouya	Ouahigouya	BF	13.58278	-2.42158	61096
Ouagadougou	Ouagadougou	BF	12.36566	-1.53388	1086505
Nouna	Nouna	BF	12.72939	-3.86305	29048
Manga	Manga	BF	11.66361	-1.07306	15173
Léo	Léo	BF	11.10033	-2.10654	26884
Koupéla	Koupéla	BF	12.17864	-0.35103	32052
Koudougou	Koudougou	BF	12.25263	-2.36272	87347
Kongoussi	Kongoussi	BF	13.32583	-1.53472	26338
Kombissiri	Kombissiri	BF	12.06095	-1.33355	30137
Kokologo	Kokologo	BF	12.18972	-1.88556	25958
Kaya	Kaya	BF	13.09167	-1.08444	39229
Houndé	Houndé	BF	11.5	-3.51667	36593
Gourcy	Gourcy	BF	13.20776	-2.35893	16765
Garango	Garango	BF	11.8	-0.55056	29076
Fada N'gourma	Fada N'gourma	BF	12.06157	0.35843	33910
Dori	Dori	BF	14.0354	-0.0345	37806
Djibo	Djibo	BF	14.0994	-1.62554	22223
Diapaga	Diapaga	BF	12.07305	1.78838	26013
Dédougou	Dédougou	BF	12.46338	-3.46075	45341
Boussé	Boussé	BF	12.6576	-1.89288	15868
Boulsa	Boulsa	BF	12.66664	-0.57469	17489
Bobo-Dioulasso	Bobo-Dioulasso	BF	11.17715	-4.2979	360106
Banfora	Banfora	BF	10.63333	-4.76667	60288
Orodara	Orodara	BF	10.94917	-4.93417	18632
Yambol	Yambol	BG	42.48333	26.5	80116
Vratsa	Vratsa	BG	43.21	23.5625	64941
Vidin	Vidin	BG	43.99	22.8725	54409
Velingrad	Velingrad	BG	42.02754	23.99155	24036
Varna	Varna	BG	43.21667	27.91667	312770
Targovishte	Targovishte	BG	43.2512	26.57215	37774
Troyan	Troyan	BG	42.89427	24.71589	21162
Dobrich	Dobrich	BG	43.56667	27.83333	94831
Svishtov	Svishtov	BG	43.61959	25.35044	32256
Svilengrad	Svilengrad	BG	41.76667	26.2	19279
Stara Zagora	Stara Zagora	BG	42.43278	25.64194	143431
Dupnitsa	Dupnitsa	BG	42.26667	23.11667	34764
Sofia	Sofia	BG	42.69751	23.32415	1152556
Smolyan	Smolyan	BG	41.58528	24.69194	32069
Sliven	Sliven	BG	42.68583	26.32917	96368
Silistra	Silistra	BG	44.11667	27.26667	39715
Shumen	Shumen	BG	43.27064	26.92286	87283
Sevlievo	Sevlievo	BG	43.02583	25.11361	24582
Sandanski	Sandanski	BG	41.56667	23.28333	26459
Samokov	Samokov	BG	42.337	23.5528	26765
Ruse	Ruse	BG	43.85639	25.97083	156238
Razgrad	Razgrad	BG	43.53333	26.51667	38285
Rakovski	Rakovski	BG	42.3	24.96667	15782
Popovo	Popovo	BG	43.35	26.23333	16571
Plovdiv	Plovdiv	BG	42.15	24.75	340494
Pleven	Pleven	BG	43.41667	24.61667	118675
Petrich	Petrich	BG	41.4	23.21667	30308
Peshtera	Peshtera	BG	42.03333	24.3	18676
Pernik	Pernik	BG	42.6	23.03333	82467
Pazardzhik	Pazardzhik	BG	42.2	24.33333	75977
Panagyurishte	Panagyurishte	BG	42.5	24.18333	19389
Nova Zagora	Nova Zagora	BG	42.48333	26.01667	24340
Montana	Montana	BG	43.4125	23.225	47445
Lovech	Lovech	BG	43.13333	24.71667	42211
Lom	Lom	BG	43.81389	23.23611	26594
Kyustendil	Kyustendil	BG	42.28389	22.69111	48286
Kardzhali	Kardzhali	BG	41.65	25.36667	51000
Haskovo	Haskovo	BG	41.93415	25.55557	79699
Kharmanli	Kharmanli	BG	41.93333	25.9	18931
Karnobat	Karnobat	BG	42.65	26.98333	19709
Karlovo	Karlovo	BG	42.63333	24.8	19958
Gotse Delchev	Gotse Delchev	BG	41.56667	23.73333	20471
Gorna Oryakhovitsa	Gorna Oryakhovitsa	BG	43.12778	25.70167	38553
Gabrovo	Gabrovo	BG	42.87472	25.33417	66175
Dimitrovgrad	Dimitrovgrad	RU	54.21386	49.61838	132226
Chirpan	Chirpan	BG	42.2	25.33333	17243
Cherven Bryag	Cherven Bryag	BG	43.26667	24.1	21688
Burgas	Burgas	BG	42.50606	27.46781	195966
Botevgrad	Botevgrad	BG	42.9	23.78333	20909
Blagoevgrad	Blagoevgrad	BG	42.01667	23.1	71306
Berkovitsa	Berkovitsa	BG	43.23611	23.12583	15027
Aytos	Aytos	BG	42.7	27.25	20986
Asenovgrad	Asenovgrad	BG	42.01667	24.86667	52170
Sitrah	Sitrah	BH	26.15472	50.62056	37657
Madīnat ‘Īsá	Madīnat ‘Īsá	BH	26.17361	50.54778	38090
Jidd Ḩafş	Jidd Ḩafş	BH	26.21861	50.54778	31735
Madīnat Ḩamad	Madīnat Ḩamad	BH	26.11528	50.50694	52718
Dār Kulayb	Dār Kulayb	BH	26.06861	50.50389	65466
Al Muharraq	Al Muharraq	BH	26.25722	50.61194	97458
Manama	Manama	BH	26.22787	50.58565	147074
Ar Rifā‘	Ar Rifā‘	BH	26.13	50.555	79550
Makamba	Makamba	BI	-4.1348	29.804	19642
Bururi	Bururi	BI	-3.94877	29.62438	19740
Bujumbura	Bujumbura	BI	-3.3822	29.3644	331700
Muramvya	Muramvya	BI	-3.2682	29.6079	18041
Gitega	Gitega	BI	-3.4264	29.9308	23167
Ruyigi	Ruyigi	BI	-3.47639	30.24861	38458
Ngozi	Ngozi	BI	-2.9075	29.8306	21506
Kayanza	Kayanza	BI	-2.9221	29.6293	19443
Muyinga	Muyinga	BI	-2.8451	30.3414	71076
Rutana	Rutana	BI	-3.9279	29.992	20893
Tchaourou	Tchaourou	BJ	8.88649	2.59753	20971
Tanguiéta	Tanguiéta	BJ	10.62118	1.26651	19833
Savé	Savé	BJ	8.03424	2.4866	75970
Savalou	Savalou	BJ	7.92807	1.97558	30187
Sakété	Sakété	BJ	6.73618	2.65866	30111
Porto-Novo	Porto-Novo	BJ	6.49646	2.60359	234168
Pobé	Pobé	BJ	6.98008	2.6649	32983
Parakou	Parakou	BJ	9.33716	2.63031	163753
Ouidah	Ouidah	BJ	6.36307	2.08506	83503
Nikki	Nikki	BJ	9.94009	3.21075	54009
Natitingou	Natitingou	BJ	10.30416	1.37962	80892
Malanville	Malanville	BJ	11.86819	3.38327	37117
Lokossa	Lokossa	BJ	6.63869	1.71674	86971
Kétou	Kétou	BJ	7.36332	2.59978	22341
Kandi	Kandi	BJ	11.13417	2.93861	109701
Djougou	Djougou	BJ	9.70853	1.66598	237040
Dassa-Zoumé	Dassa-Zoumé	BJ	7.75	2.18333	21672
Cové	Cové	BJ	7.22097	2.34017	38566
Cotonou	Cotonou	BJ	6.36536	2.41833	780000
Comé	Comé	BJ	6.40764	1.88198	29208
Bohicon	Bohicon	BJ	7.17826	2.0667	125092
Bembèrèkè	Bembèrèkè	BJ	10.22827	2.66335	24006
Bassila	Bassila	BJ	9.00814	1.6654	23616
Banikoara	Banikoara	BJ	11.29845	2.43856	22487
Aplahoué	Aplahoué	BJ	6.93333	1.68333	19862
Allada	Allada	BJ	6.66547	2.15138	20094
Abomey-Calavi	Abomey-Calavi	BJ	6.44852	2.35566	385755
Abomey	Abomey	BJ	7.18286	1.99119	82154
Gustavia	Gustavia	BL	17.89618	-62.84978	5988
Hamilton	Hamilton	CA	43.25011	-79.84963	519949
Tutong	Tutong	BN	4.8	114.65	19151
Seria	Seria	BN	4.60637	114.32476	30097
Kuala Belait	Kuala Belait	BN	4.58361	114.2312	31178
Bandar Seri Begawan	Bandar Seri Begawan	BN	4.94029	114.94806	64409
Yacuiba	Yacuiba	BO	-22.01643	-63.67753	82803
Warnes	Warnes	BO	-17.5163	-63.16778	22036
Villazón	Villazón	BO	-22.08659	-65.59422	30253
Villa Yapacaní	Villa Yapacaní	BO	-17.4	-63.83333	18187
Villamontes	Villamontes	BO	-21.26235	-63.46903	18761
Tupiza	Tupiza	BO	-21.44345	-65.71875	22233
Trinidad	Trinidad	BO	-14.83333	-64.9	84259
Tarija	Tarija	BO	-21.53549	-64.72956	159269
Sucre	Sucre	BO	-19.03332	-65.26274	224838
Santiago del Torno	Santiago del Torno	BO	-17.98674	-63.38118	15543
Santa Cruz de la Sierra	Santa Cruz de la Sierra	BO	-17.78629	-63.18117	1364389
San Ignacio de Velasco	San Ignacio de Velasco	BO	-16.36667	-60.95	23569
Riberalta	Riberalta	BO	-11.00654	-66.06312	74014
Punata	Punata	BO	-17.54234	-65.83472	15194
Potosí	Potosí	BO	-19.58361	-65.75306	141251
Oruro	Oruro	BO	-17.98333	-67.15	208684
Montero	Montero	BO	-17.33866	-63.2505	88616
Mizque	Mizque	BO	-17.94101	-65.34016	30481
Llallagua	Llallagua	BO	-18.42426	-66.58388	28069
Huanuni	Huanuni	BO	-18.289	-66.83583	15492
Guayaramerín	Guayaramerín	BO	-10.83676	-65.36136	36008
Cochabamba	Cochabamba	BO	-17.3895	-66.1568	900414
Cobija	Cobija	BO	-11.02671	-68.76918	26585
Camiri	Camiri	BO	-20.03849	-63.51833	27961
Kralendijk	Kralendijk	BQ	12.15	-68.26667	3081
Vitória do Mearim	Vitória do Mearim	BR	-3.46222	-44.87056	15775
Vitória de Santo Antão	Vitória de Santo Antão	BR	-8.11806	-35.29139	107383
Viseu	Viseu	PT	40.66101	-7.90971	26364
Conde	Conde	BR	-7.25972	-34.9075	15859
Viçosa do Ceará	Viçosa do Ceará	BR	-3.56222	-41.09222	16636
Viçosa	Viçosa	BR	-20.75389	-42.88194	68680
Viana	Viana	BR	-20.39028	-40.49611	55122
Valença do Piauí	Valença do Piauí	BR	-6.4075	-41.74556	15881
União dos Palmares	União dos Palmares	BR	-9.16278	-36.03194	41178
Tuntum	Tuntum	BR	-5.25806	-44.64889	16402
Tucuruí	Tucuruí	BR	-3.76585	-49.67923	76337
Trairi	Trairi	BR	-3.27778	-39.26889	23126
Toritama	Toritama	BR	-8.00667	-36.05667	23940
Timon	Timon	BR	-5.09417	-42.83667	124427
Timbiras	Timbiras	BR	-4.25528	-43.94056	17875
Timbaúba	Timbaúba	BR	-7.50528	-35.31833	45121
Tianguá	Tianguá	BR	-3.73222	-40.99167	45696
Teresina	Teresina	BR	-5.08917	-42.80194	744512
São João dos Inhamuns	São João dos Inhamuns	BR	-6	-40.28333	29188
Tabira	Tabira	BR	-7.59083	-37.53944	16926
Sousa	Sousa	BR	-6.75917	-38.22806	47927
Soure	Soure	BR	-0.71667	-48.52333	18212
Solânea	Solânea	BR	-6.755	-35.54	17030
Sobral	Sobral	BR	-3.68611	-40.34972	157996
Sirinhaém	Sirinhaém	BR	-8.59083	-35.11611	40852
Sertânia	Sertânia	BR	-8.07361	-37.26444	18190
Serra Talhada	Serra Talhada	BR	-7.99194	-38.29833	51203
São Raimundo Nonato	São Raimundo Nonato	BR	-9.01528	-42.69944	19569
São Miguel dos Campos	São Miguel dos Campos	BR	-9.78111	-36.09361	40890
São Miguel do Guamá	São Miguel do Guamá	BR	-1.62667	-47.48333	28265
São Luís do Quitunde	São Luís do Quitunde	BR	-9.31833	-35.56111	20563
São Luís	São Luís	BR	-2.52972	-44.30278	917237
São Lourenço da Mata	São Lourenço da Mata	BR	-8.00222	-35.01833	88416
São José do Egito	São José do Egito	BR	-7.47889	-37.27444	18218
São José de Ribamar	São José de Ribamar	BR	-2.56194	-44.05417	27777
São José de Mipibu	São José de Mipibu	BR	-6.07472	-35.23778	15298
São Gonçalo do Amarante	São Gonçalo do Amarante	BR	-3.60722	-38.96833	23583
São Félix do Xingu	São Félix do Xingu	BR	-6.64472	-51.995	16477
São Domingos do Maranhão	São Domingos do Maranhão	BR	-5.57583	-44.38528	18275
São Bento	São Bento	BR	-2.69583	-44.82139	17245
Santarém	Santarém	BR	-2.44306	-54.70833	189047
Santa Quitéria do Maranhão	Santa Quitéria do Maranhão	BR	-3.51556	-42.54667	17174
Santana do Ipanema	Santana do Ipanema	BR	-9.37833	-37.24528	26146
Santa Inês	Santa Inês	BR	-3.66667	-45.38	67424
Santa Cruz do Capibaribe	Santa Cruz do Capibaribe	BR	-7.9575	-36.20472	76450
Santa Cruz	Santa Cruz	PH	14.2814	121.4161	108145
Salinópolis	Salinópolis	BR	-0.61361	-47.35611	40998
Salgueiro	Salgueiro	BR	-8.07417	-39.11917	42152
Russas	Russas	BR	-4.94028	-37.97583	39465
Recife	Recife	BR	-8.05389	-34.88111	1478098
Quixeramobim	Quixeramobim	BR	-5.19917	-39.29278	34321
Presidente Dutra	Presidente Dutra	BR	-5.29	-44.49	30330
Santana	Santana	BR	-0.05833	-51.18167	83927
Pombos	Pombos	BR	-8.14139	-35.39583	15894
Pombal	Pombal	BR	-6.77028	-37.80167	21751
Piripiri	Piripiri	BR	-4.27333	-41.77694	44864
Pinheiro	Pinheiro	BR	-2.52139	-45.0825	38893
Pindaré Mirim	Pindaré Mirim	BR	-3.60833	-45.34333	22933
Pilar	Pilar	BR	-9.59722	-35.95667	30617
Picos	Picos	BR	-7.07694	-41.46694	57495
Petrolina	Petrolina	BR	-9.39861	-40.50083	194650
Jatobá	Jatobá	BR	-9.18306	-38.26889	20575
Pedro II	Pedro II	BR	-4.42472	-41.45861	22038
Pedra Branca	Pedra Branca	BR	-5.45417	-39.71722	20072
Paulo Afonso	Paulo Afonso	BR	-9.40611	-38.21472	85350
Paulista	Paulista	BR	-7.94083	-34.87306	289971
Patos	Patos	BR	-7.02444	-37.28	92575
Parnamirim	Parnamirim	BR	-5.91556	-35.26278	150343
Parnaíba	Parnaíba	BR	-2.90472	-41.77667	138008
Parintins	Parintins	BR	-2.62833	-56.73583	64428
Paraipaba	Paraipaba	BR	-3.43944	-39.14833	18423
Palmares	Palmares	BR	-8.68333	-35.59167	41679
Pacajus	Pacajus	BR	-4.1725	-38.46056	41558
Ouricuri	Ouricuri	BR	-7.8825	-40.08167	29317
Orós	Orós	BR	-6.24444	-38.91361	16328
Olinda	Olinda	BR	-8.00889	-34.85528	366754
Oeiras	Oeiras	BR	-7.02528	-42.13111	21071
Nazaré da Mata	Nazaré da Mata	BR	-7.74167	-35.22778	26485
Natal	Natal	BR	-5.795	-35.20944	763043
Morada Nova	Morada Nova	BR	-5.10667	-38.3725	37389
Monteiro	Monteiro	BR	-7.88944	-37.12	17726
Monte Alegre	Monte Alegre	BR	-2.00082	-54.08102	22840
Mombaça	Mombaça	BR	-5.74306	-39.6275	17065
Mossoró	Mossoró	BR	-5.1875	-37.34417	202005
Matriz de Camaragibe	Matriz de Camaragibe	BR	-9.15167	-35.53333	18705
Mari	Mari	BR	-7.06	-35.31944	17535
Marechal Deodoro	Marechal Deodoro	BR	-9.71028	-35.895	50571
Maragogi	Maragogi	BR	-9.01222	-35.2225	16066
Marabá	Marabá	BR	-5.38146	-49.13232	145860
Maceió	Maceió	BR	-9.66583	-35.73528	954991
Macau	Macau	MO	22.20056	113.54611	520400
Macapá	Macapá	BR	0.03889	-51.06639	338936
Macaíba	Macaíba	BR	-5.85833	-35.35389	40015
Limoeiro do Norte	Limoeiro do Norte	BR	-5.14556	-38.09806	29449
Lavras da Mangabeira	Lavras da Mangabeira	BR	-6.75333	-38.96444	17221
Lajedo	Lajedo	BR	-8.66361	-36.32	25261
Lago da Pedra	Lago da Pedra	BR	-4.28674	-45.23824	25996
Juazeiro do Norte	Juazeiro do Norte	BR	-7.21306	-39.31528	225230
José de Freitas	José de Freitas	BR	-4.75639	-42.57556	21432
João Pessoa	João Pessoa	BR	-7.115	-34.86306	650883
João Câmara	João Câmara	BR	-5.5375	-35.81972	19885
Jaguaruana	Jaguaruana	BR	-4.83389	-37.78111	21790
Jaguaribe	Jaguaribe	BR	-5.89056	-38.62194	23065
Itacoatiara	Itacoatiara	BR	-3.14306	-58.44417	64937
Itaporanga	Itaporanga	BR	-7.30444	-38.15028	15890
Itapissuma	Itapissuma	BR	-7.77639	-34.89222	16673
Itapipoca	Itapipoca	BR	-3.49444	-39.57861	55784
Itapecuru Mirim	Itapecuru Mirim	BR	-3.3925	-44.35861	34943
Itapagé	Itapagé	BR	-3.68667	-39.58611	32043
Itaituba	Itaituba	BR	-4.27611	-55.98361	64756
Itabaiana	Itabaiana	BR	-7.32861	-35.3325	19100
Ipubi	Ipubi	BR	-7.65194	-40.14889	16424
Ipojuca	Ipojuca	BR	-8.39889	-35.06389	53364
Imperatriz	Imperatriz	BR	-5.52639	-47.49167	218106
Iguatu	Iguatu	BR	-6.35944	-39.29861	70380
Igarapé Miri	Igarapé Miri	BR	-1.975	-48.95972	26837
Igarapé Açu	Igarapé Açu	BR	-1.12889	-47.62	24136
Igarassu	Igarassu	BR	-7.83417	-34.90639	86457
Guaraciaba do Norte	Guaraciaba do Norte	BR	-4.16694	-40.7475	18186
Guarabira	Guarabira	BR	-6.85472	-35.49	43749
Guaiúba	Guaiúba	BR	-4.03972	-38.63722	21820
Gravatá	Gravatá	BR	-8.20111	-35.56472	61249
Grajaú	Grajaú	BR	-5.81944	-46.13861	30217
Goiana	Goiana	BR	-7.56056	-35.0025	43980
Glória do Goitá	Glória do Goitá	BR	-8.00167	-35.29278	17374
Garanhuns	Garanhuns	BR	-8.88202	-36.50216	110085
Gameleira	Gameleira	BR	-8.58444	-35.38667	19423
Fortaleza	Fortaleza	BR	-3.71722	-38.54306	2400000
Floriano	Floriano	BR	-6.76694	-43.0225	48587
Floresta	Floresta	BR	-8.60111	-38.56861	18100
Eusébio	Eusébio	BR	-3.89	-38.45056	37289
Extremoz	Extremoz	BR	-5.70556	-35.30722	17991
Esperantina	Esperantina	BR	-3.90167	-42.23361	21044
Dom Pedro	Dom Pedro	BR	-5.03749	-44.43857	15570
Demerval Lobão	Demerval Lobão	BR	-5.35833	-42.67639	15265
Delmiro Gouveia	Delmiro Gouveia	BR	-9.38861	-37.99917	35259
Cururupu	Cururupu	BR	-1.82833	-44.86833	22007
Currais Novos	Currais Novos	BR	-6.26083	-36.51778	35560
Cupira	Cupira	BR	-8.61667	-35.95	19096
Crato	Crato	BR	-7.23417	-39.40944	88786
Crateús	Crateús	BR	-5.17833	-40.6775	52933
Coroatá	Coroatá	BR	-4.13	-44.12417	34129
Condado	Condado	CU	21.8767	-79.84014	38248
Conceição do Araguaia	Conceição do Araguaia	BR	-8.26441	-49.26982	27115
Colinas	Colinas	BR	-6.02583	-44.24917	25158
Coelho Neto	Coelho Neto	BR	-4.25667	-43.01278	36184
Codó	Codó	BR	-4.45528	-43.88556	83288
Caxias	Caxias	BR	-4.85889	-43.35611	148072
Caucaia	Caucaia	BR	-3.73611	-38.65306	275019
Catolé do Rocha	Catolé do Rocha	BR	-6.34389	-37.74667	19812
Castanhal	Castanhal	BR	-1.29389	-47.92639	137406
Caruaru	Caruaru	BR	-8.28333	-35.97611	235371
Carpina	Carpina	BR	-7.85083	-35.25472	70689
Carolina	Carolina	BR	-7.33561	-47.46218	16228
Canindé	Canindé	BR	-4.35889	-39.31167	42720
Canguaretama	Canguaretama	BR	-6.38	-35.12889	18873
Campos Sales	Campos Sales	BR	-7.07444	-40.37611	17648
Campo Maior	Campo Maior	BR	-4.82778	-42.16861	31739
Campo Alegre	Campo Alegre	BR	-9.78194	-36.35083	16785
Campina Grande	Campina Grande	BR	-7.23056	-35.88111	348936
Camocim	Camocim	BR	-2.90222	-40.84111	44481
Cajueiro	Cajueiro	BR	-9.71667	-36.45	15062
Cajazeiras	Cajazeiras	BR	-6.89028	-38.55528	43913
Caicó	Caicó	BR	-6.45833	-37.09778	54934
Cabedelo	Cabedelo	BR	-6.98111	-34.83389	54839
Buriti Bravo	Buriti Bravo	BR	-5.83722	-43.83361	17692
Buíque	Buíque	BR	-8.62306	-37.15583	20324
Breves	Breves	BR	-1.68222	-50.48028	46473
Brejo Santo	Brejo Santo	BR	-7.49333	-38.98722	27384
Brejo da Madre de Deus	Brejo da Madre de Deus	BR	-8.14583	-36.37111	27369
Bezerros	Bezerros	BR	-8.23333	-35.79694	51436
Belo Jardim	Belo Jardim	BR	-8.33556	-36.42417	49922
Belém	Belém	BR	-1.45583	-48.50444	1407737
Beberibe	Beberibe	BR	-4.17972	-38.13056	37025
Barreirinhas	Barreirinhas	BR	-2.75556	-42.82591	17437
Barras	Barras	BR	-4.24444	-42.29444	21597
Balsas	Balsas	BR	-7.5325	-46.03556	68056
Bacabal	Bacabal	BR	-4.29167	-44.79167	72372
Arcoverde	Arcoverde	BR	-8.41889	-37.05389	57163
Araripina	Araripina	BR	-7.57611	-40.49833	38569
Arari	Arari	BR	-3.45361	-44.78	16777
Arapiraca	Arapiraca	BR	-9.7525	-36.66111	166562
Araguaína	Araguaína	BR	-7.19111	-48.20722	105019
Aracati	Aracati	BR	-4.56167	-37.76972	44293
Apodi	Apodi	BR	-5.66417	-37.79889	16757
Ananindeua	Ananindeua	BR	-1.36556	-48.37222	433956
Amaraji	Amaraji	BR	-8.38306	-35.4525	16660
Altamira	Altamira	BR	-3.20333	-52.20639	70888
Almeirim	Almeirim	BR	-1.52333	-52.58167	20464
Alenquer	Alenquer	BR	-1.94167	-54.73833	26290
Águas Belas	Águas Belas	BR	-9.11139	-37.12306	22563
Afogados da Ingazeira	Afogados da Ingazeira	BR	-7.75083	-37.63917	25060
Açu	Açu	BR	-5.57667	-36.90861	36125
Acopiara	Acopiara	BR	-6.09528	-39.4525	24561
Acaraú	Acaraú	BR	-2.88556	-40.12	28389
Abreu e Lima	Abreu e Lima	BR	-7.91167	-34.90278	81959
Abaetetuba	Abaetetuba	BR	-1.71806	-48.8825	78050
Xique Xique	Xique Xique	BR	-10.82294	-42.72815	35433
Xanxerê	Xanxerê	BR	-26.87694	-52.40417	32957
Votuporanga	Votuporanga	BR	-20.42278	-49.97278	69863
Votorantim	Votorantim	BR	-23.54667	-47.43778	99390
Volta Redonda	Volta Redonda	BR	-22.52306	-44.10417	249580
Vitória da Conquista	Vitória da Conquista	BR	-14.86611	-40.83944	253137
Vitória	Vitória	BR	-20.31944	-40.33778	312656
Visconde do Rio Branco	Visconde do Rio Branco	BR	-21.01028	-42.84056	29009
Viradouro	Viradouro	BR	-20.87306	-48.29694	17172
Vinhedo	Vinhedo	BR	-23.02972	-46.97528	56492
Vila Velha	Vila Velha	BR	-20.32972	-40.2925	394930
Videira	Videira	BR	-27.00833	-51.15167	42440
Viamão	Viamão	BR	-30.08111	-51.02333	285269
Veranópolis	Veranópolis	BR	-28.93611	-51.54944	19861
Wenceslau Braz	Wenceslau Braz	BR	-23.87389	-49.80278	15726
Venâncio Aires	Venâncio Aires	BR	-29.60639	-52.19194	40627
Vassouras	Vassouras	BR	-22.40389	-43.6625	21174
Várzea Paulista	Várzea Paulista	BR	-23.21139	-46.82833	110936
Várzea Grande	Várzea Grande	BR	-15.64667	-56.1325	249752
Varginha	Varginha	BR	-21.55139	-45.43028	116571
Vargem Grande do Sul	Vargem Grande do Sul	BR	-21.83222	-46.89361	36213
Valinhos	Valinhos	BR	-22.97056	-46.99583	88630
Valença	Valença	BR	-13.37028	-39.07306	63231
Vacaria	Vacaria	BR	-28.51222	-50.93389	56765
Uruguaiana	Uruguaiana	BR	-29.75472	-57.08833	123480
Uruçuca	Uruçuca	BR	-14.59306	-39.28444	24409
Uruaçu	Uruaçu	BR	-14.52472	-49.14083	30088
União da Vitória	União da Vitória	BR	-26.23	-51.08639	48741
Unaí	Unaí	BR	-16.3575	-46.90611	60202
Una	Una	IN	20.82318	71.03795	56545
Umuarama	Umuarama	BR	-23.76639	-53.325	89687
Uberlândia	Uberlândia	BR	-18.91861	-48.27722	563536
Uberaba	Uberaba	BR	-19.74833	-47.93194	260843
Ubatuba	Ubatuba	BR	-23.43389	-45.07111	79007
Ubatã	Ubatã	BR	-14.20906	-39.52641	15604
Ubaitaba	Ubaitaba	BR	-14.3125	-39.32333	28375
Ubá	Ubá	BR	-21.12	-42.94278	97828
Tupanciretã	Tupanciretã	BR	-29.08056	-53.83583	17488
Tupaciguara	Tupaciguara	BR	-18.59222	-48.705	24398
Tupã	Tupã	BR	-21.93472	-50.51361	62035
Tucano	Tucano	BR	-10.95817	-38.79084	31203
Tubarão	Tubarão	BR	-28.46667	-49.00694	67245
Trindade	Trindade	BR	-16.64944	-49.48889	97521
Três Rios	Três Rios	BR	-22.11667	-43.20917	71944
Três Pontas	Três Pontas	BR	-21.36667	-45.5125	43749
Três Lagoas	Três Lagoas	BR	-20.78765	-51.70338	78712
Três de Maio	Três de Maio	BR	-27.77333	-54.24	18278
Três Coroas	Três Coroas	BR	-29.51694	-50.77778	21051
Três Corações	Três Corações	BR	-21.69694	-45.25333	63457
Tramandaí	Tramandaí	BR	-29.98472	-50.13361	34734
Torres	Torres	BR	-29.33528	-49.72694	32791
Toledo	Toledo	US	41.66394	-83.55521	287208
Tobias Barreto	Tobias Barreto	BR	-11.18389	-37.99833	29740
Timóteo	Timóteo	BR	-19.58106	-42.64953	91722
Tijucas	Tijucas	BR	-27.24139	-48.63361	22481
Tietê	Tietê	BR	-23.10194	-47.71472	32061
Teresópolis	Teresópolis	BR	-22.4167	-42.97822	123979
Teófilo Otoni	Teófilo Otoni	BR	-17.8575	-41.50528	101170
Teodoro Sampaio	Teodoro Sampaio	BR	-22.5325	-52.1675	15193
Telêmaco Borba	Telêmaco Borba	BR	-24.32389	-50.61556	58880
Taubaté	Taubaté	BR	-23.02639	-45.55528	251641
Tatuí	Tatuí	BR	-23.35556	-47.85694	93580
Taquarituba	Taquarituba	BR	-23.53306	-49.24444	21492
Taquaritinga	Taquaritinga	BR	-21.40611	-48.50472	50098
Taquari	Taquari	BR	-29.79972	-51.86444	27107
Tapiramutá	Tapiramutá	BR	-11.84722	-40.79139	16544
Tapes	Tapes	BR	-30.67333	-51.39583	18570
Tanabi	Tanabi	BR	-20.62639	-49.64917	18227
Tambaú	Tambaú	BR	-21.705	-47.27444	19956
Taiobeiras	Taiobeiras	BR	-15.80778	-42.23306	24351
Taboão da Serra	Taboão da Serra	BR	-23.62611	-46.79167	214523
Suzano	Suzano	BR	-23.5425	-46.31083	283314
Sumaré	Sumaré	BR	-22.82194	-47.26694	227977
Sorocaba	Sorocaba	BR	-23.50167	-47.45806	558862
Socorro	Socorro	US	31.65456	-106.30331	32013
Simão Dias	Simão Dias	BR	-10.73833	-37.81111	18385
Silva Jardim	Silva Jardim	BR	-22.65083	-42.39167	16888
Sete Lagoas	Sete Lagoas	BR	-19.46583	-44.24667	201334
Serra	Serra	BR	-20.12861	-40.30778	394153
Seropédica	Seropédica	BR	-22.74389	-43.7075	54846
Senhor do Bonfim	Senhor do Bonfim	BR	-10.46139	-40.18944	48471
Seabra	Seabra	BR	-12.41713	-41.77049	16764
Schroeder	Schroeder	BR	-26.4125	-49.07306	15505
Sarandi	Sarandi	BR	-27.94389	-52.92306	15158
Sapucaia	Sapucaia	BR	-29.83333	-51.15	130937
Sapiranga	Sapiranga	BR	-29.63806	-51.00694	76051
São Vicente	São Vicente	BR	-23.96306	-46.39194	324457
São Sebastião do Passé	São Sebastião do Passé	BR	-12.5125	-38.49528	31049
São Sebastião do Paraíso	São Sebastião do Paraíso	BR	-20.91694	-46.99139	68654
São Sebastião do Caí	São Sebastião do Caí	BR	-29.58667	-51.37556	19012
São Sebastião	São Sebastião	BR	-23.76	-45.40972	76367
São Pedro da Aldeia	São Pedro da Aldeia	BR	-22.83917	-42.10278	55014
São Pedro	São Pedro	BR	-22.54861	-47.91389	27068
São Paulo	São Paulo	BR	-23.5475	-46.63611	10021295
São Miguel do Iguaçu	São Miguel do Iguaçu	BR	-25.34806	-54.23778	15434
São Mateus do Sul	São Mateus do Sul	BR	-25.87417	-50.38278	24904
São Mateus	São Mateus	BR	-18.72011	-39.85891	77117
São Marcos	São Marcos	BR	-28.97111	-51.06806	18591
São Manuel	São Manuel	BR	-22.73111	-48.57056	33587
São Luiz Gonzaga	São Luiz Gonzaga	BR	-28.40833	-54.96083	31798
São Lourenço do Sul	São Lourenço do Sul	BR	-31.36528	-51.97833	25340
São Lourenço	São Lourenço	BR	-22.11639	-45.05444	41143
São Leopoldo	São Leopoldo	BR	-29.76028	-51.14722	209229
São José dos Pinhais	São José dos Pinhais	BR	-25.5302	-49.20836	124224
São José dos Campos	São José dos Campos	BR	-23.17944	-45.88694	613764
São José do Rio Preto	São José do Rio Preto	BR	-20.81972	-49.37944	374699
São Joaquim da Barra	São Joaquim da Barra	BR	-20.58139	-47.85472	42720
São Joaquim	São Joaquim	BR	-28.29389	-49.93167	16250
São João Nepomuceno	São João Nepomuceno	BR	-21.54	-43.01056	23154
São João de Meriti	São João de Meriti	BR	-22.80389	-43.37222	454849
São João del Rei	São João del Rei	BR	-21.13556	-44.26167	78592
São João da Barra	São João da Barra	BR	-21.64028	-41.05111	20606
São Jerônimo	São Jerônimo	BR	-29.95917	-51.72222	17056
São Gotardo	São Gotardo	BR	-19.31111	-46.04889	34145
São Gonçalo do Sapucaí	São Gonçalo do Sapucaí	BR	-21.89222	-45.59528	19487
São Francisco do Sul	São Francisco do Sul	BR	-26.24333	-48.63806	36224
São Francisco do Conde	São Francisco do Conde	BR	-12.6275	-38.68	24614
São Francisco	São Francisco	BR	-15.94861	-44.86444	33033
São Cristóvão	São Cristóvão	BR	-11.01472	-37.20639	71539
São Carlos	São Carlos	BR	-22.0175	-47.89083	205035
São Caetano do Sul	São Caetano do Sul	BR	-23.62306	-46.55111	136453
São Borja	São Borja	BR	-28.66056	-56.00444	59613
São Bernardo do Campo	São Bernardo do Campo	BR	-23.69389	-46.565	743372
São Bento do Sul	São Bento do Sul	BR	-26.25028	-49.37861	77597
Santos Dumont	Santos Dumont	BR	-21.45667	-43.5525	41582
Santos	Santos	BR	-23.96083	-46.33361	411403
Santo Antônio de Posse	Santo Antônio de Posse	BR	-22.60611	-46.91944	18148
Santo Antônio de Pádua	Santo Antônio de Pádua	BR	-21.53944	-42.18028	33076
Santo Antônio da Platina	Santo Antônio da Platina	BR	-23.295	-50.07722	35260
Santo Ângelo	Santo Ângelo	BR	-28.29917	-54.26306	64606
Santo André	Santo André	BR	-23.66389	-46.53833	662373
Santo Amaro da Imperatriz	Santo Amaro da Imperatriz	BR	-27.68806	-48.77861	18418
Santo Amaro	Santo Amaro	BR	-12.54667	-38.71194	46748
Santiago	Santiago	CL	-33.45694	-70.64827	4837295
Santa Vitória do Palmar	Santa Vitória do Palmar	BR	-33.51889	-53.36806	27775
Santa Rosa de Viterbo	Santa Rosa de Viterbo	BR	-21.47278	-47.36306	21473
Santa Rita do Sapucaí	Santa Rita do Sapucaí	BR	-22.25222	-45.70333	28765
Santa Rita do Passa Quatro	Santa Rita do Passa Quatro	BR	-21.71028	-47.47806	24578
Santana do Paraíso	Santana do Paraíso	BR	-19.36361	-42.56861	25515
Santana do Livramento	Santana do Livramento	BR	-30.89083	-55.53278	89694
Santana de Parnaíba	Santana de Parnaíba	BR	-23.44417	-46.91778	98989
Santa Maria da Vitória	Santa Maria da Vitória	BR	-13.39472	-44.18861	23488
Santa Maria	Santa Maria	BR	-29.68417	-53.80694	249219
Santa Luzia	Santa Luzia	BR	-19.76972	-43.85139	243503
Santaluz	Santaluz	BR	-11.25583	-39.37472	24739
Santa Isabel	Santa Isabel	BR	-23.31556	-46.22139	33709
Santa Helena de Goiás	Santa Helena de Goiás	BR	-17.81361	-50.59694	34254
Santa Cruz do Sul	Santa Cruz do Sul	BR	-29.7175	-52.42583	106113
Santa Cruz das Palmeiras	Santa Cruz das Palmeiras	BR	-21.82694	-47.24861	25800
Santa Cruz Cabrália	Santa Cruz Cabrália	BR	-16.27806	-39.02472	19545
Santa Bárbara d'Oeste	Santa Bárbara d'Oeste	BR	-22.75361	-47.41361	188000
Salvador	Salvador	BR	-12.97111	-38.51083	2711840
Salto	Salto	UY	-31.38333	-57.96667	99823
Salinas	Salinas	US	36.67774	-121.6555	150441
Sacramento	Sacramento	US	38.58157	-121.4944	466488
Ruy Barbosa	Ruy Barbosa	BR	-12.28389	-40.49389	21093
Rosário do Sul	Rosário do Sul	BR	-30.25833	-54.91417	36721
Rondonópolis	Rondonópolis	BR	-16.47083	-54.63556	152912
Rolândia	Rolândia	BR	-23.30972	-51.36917	51004
Rio Verde de Mato Grosso	Rio Verde de Mato Grosso	BR	-18.91806	-54.84417	16613
Rio Real	Rio Real	BR	-11.48472	-37.93278	24005
Rio Pardo	Rio Pardo	BR	-29.98972	-52.37806	26998
Rio Negrinho	Rio Negrinho	BR	-26.25444	-49.51833	41914
Rio Grande	Rio Grande	BR	-32.035	-52.09861	187838
Rio do Sul	Rio do Sul	BR	-27.21417	-49.64306	51944
Rio de Janeiro	Rio de Janeiro	BR	-22.90278	-43.2075	6023699
Rio Claro	Rio Claro	BR	-22.41139	-47.56139	180147
Rio Brilhante	Rio Brilhante	BR	-21.80194	-54.54639	18837
Rio Branco do Sul	Rio Branco do Sul	BR	-25.19	-49.31417	26441
Ribeirão Preto	Ribeirão Preto	BR	-21.1775	-47.81028	619746
Ribeirão das Neves	Ribeirão das Neves	BR	-19.76694	-44.08667	406802
Ribeirão da Ilha	Ribeirão da Ilha	BR	-27.69934	-48.53219	21000
Ribeira do Pombal	Ribeira do Pombal	BR	-10.83444	-38.53583	28235
Riachão do Jacuípe	Riachão do Jacuípe	BR	-11.80694	-39.38556	16911
Resplendor	Resplendor	BR	-19.32556	-41.25528	15131
Resende	Resende	BR	-22.46889	-44.44667	111514
Quaraí	Quaraí	BR	-30.3875	-56.45139	23229
Presidente Venceslau	Presidente Venceslau	BR	-21.87611	-51.84389	34026
Presidente Prudente	Presidente Prudente	BR	-22.12556	-51.38889	209502
Presidente Epitácio	Presidente Epitácio	BR	-21.76333	-52.11556	38742
Praia Grande	Praia Grande	BR	-24.00583	-46.40278	250027
Prado	Prado	BR	-17.34111	-39.22083	15464
Pouso Alegre	Pouso Alegre	BR	-22.23	-45.93639	115201
Porto União	Porto União	BR	-26.23806	-51.07833	28907
Porto Seguro	Porto Seguro	BR	-16.44972	-39.06472	123173
Porto Ferreira	Porto Ferreira	BR	-21.85389	-47.47917	49127
Porto Feliz	Porto Feliz	BR	-23.21472	-47.52389	41015
Porto Alegre	Porto Alegre	BR	-30.03306	-51.23	1372741
Porangatu	Porangatu	BR	-13.44083	-49.14861	32758
Pontes e Lacerda	Pontes e Lacerda	BR	-15.22611	-59.33528	29381
Ponta Porã	Ponta Porã	BR	-22.53611	-55.72556	55763
Ponta Grossa	Ponta Grossa	BR	-25.095	-50.16194	292177
Pompéu	Pompéu	BR	-19.22444	-44.93528	25277
Pomerode	Pomerode	BR	-26.74056	-49.17694	21898
Poços de Caldas	Poços de Caldas	BR	-21.78778	-46.56139	146588
Poconé	Poconé	BR	-16.25667	-56.62278	21484
Poções	Poções	BR	-14.52972	-40.36528	35254
Planaltina	Planaltina	BR	-15.45278	-47.61417	88853
Piuí	Piuí	BR	-20.46528	-45.95806	27327
Pitangui	Pitangui	BR	-19.68278	-44.89028	18858
Pitanga	Pitanga	BR	-24.75722	-51.76139	18652
Piritiba	Piritiba	BR	-11.73028	-40.55528	16230
Pires do Rio	Pires do Rio	BR	-17.29972	-48.27944	24822
Piraquara	Piraquara	BR	-25.44227	-49.06795	41161
Pirapora	Pirapora	BR	-17.345	-44.94194	51656
Pirajuí	Pirajuí	BR	-21.99861	-49.45722	17503
Piraí do Sul	Piraí do Sul	BR	-24.52611	-49.94861	16409
Piraí	Piraí	BR	-22.62917	-43.89806	19105
Pirassununga	Pirassununga	BR	-21.99611	-47.42583	60413
Piracicaba	Piracicaba	BR	-22.72528	-47.64917	342209
Piracanjuba	Piracanjuba	BR	-17.30278	-49.01667	16736
Pinheiral	Pinheiral	BR	-22.51278	-44.00056	19469
Espírito Santo do Pinhal	Espírito Santo do Pinhal	BR	-22.11583	-46.68278	37448
Pindobaçu	Pindobaçu	BR	-10.74167	-40.36083	17229
Pindamonhangaba	Pindamonhangaba	BR	-22.92389	-45.46167	132218
Pilar do Sul	Pilar do Sul	BR	-23.81306	-47.71639	19107
Petrópolis	Petrópolis	BR	-22.505	-43.17861	272691
Peruíbe	Peruíbe	BR	-24.32	-46.99833	63030
Pereira Barreto	Pereira Barreto	BR	-20.63833	-51.10917	22537
Penha	Penha	BR	-26.76944	-48.64583	20096
Penedo	Penedo	BR	-10.29028	-36.58639	42097
Penápolis	Penápolis	BR	-21.41972	-50.0775	54477
Pelotas	Pelotas	BR	-31.77194	-52.3425	320674
Pedreira	Pedreira	BR	-22.74194	-46.90139	39198
Pedra Azul	Pedra Azul	BR	-16.00528	-41.29722	20899
Paulínia	Paulínia	BR	-22.76111	-47.15417	65595
Patrocínio	Patrocínio	BR	-18.94389	-46.9925	71963
Patos de Minas	Patos de Minas	BR	-18.57889	-46.51806	126234
Pato Branco	Pato Branco	BR	-26.22861	-52.67056	65754
Paty do Alferes	Paty do Alferes	BR	-22.42861	-43.41861	20659
Passos	Passos	BR	-20.71889	-46.60972	98752
Passo Fundo	Passo Fundo	BR	-28.26278	-52.40667	179529
Paraty	Paraty	BR	-23.21778	-44.71306	15118
Paranavaí	Paranavaí	BR	-23.07306	-52.46528	72848
Paranapanema	Paranapanema	BR	-23.3863	-48.72441	16215
Paranaíba	Paranaíba	BR	-19.67722	-51.19083	32217
Paranaguá	Paranaguá	BR	-25.51626	-48.52537	141013
Paraíba do Sul	Paraíba do Sul	BR	-22.15847	-43.29321	35517
Paraguaçu Paulista	Paraguaçu Paulista	BR	-22.41278	-50.57583	39120
Paraguaçu	Paraguaçu	BR	-21.54722	-45.7375	15741
Pará de Minas	Pará de Minas	BR	-19.86028	-44.60833	75786
Paracatu	Paracatu	BR	-17.22222	-46.87472	70753
Paracambi	Paracambi	BR	-22.60829	-43.7084	36098
Panambi	Panambi	BR	-28.2925	-53.50167	30407
Palmeira das Missões	Palmeira das Missões	BR	-27.89944	-53.31361	30954
Palmeira	Palmeira	BR	-25.42944	-50.00639	18630
Palmas	Palmas	BR	-10.16745	-48.32766	196272
Palhoça	Palhoça	BR	-27.64528	-48.66778	122423
Paiçandu	Paiçandu	BR	-23.4575	-52.04861	34365
Padre Bernardo	Padre Bernardo	BR	-15.16595	-48.28281	16118
Ouro Preto	Ouro Preto	BR	-20.39484	-43.50517	63678
Ourinhos	Ourinhos	BR	-22.97889	-49.87056	97799
Osório	Osório	BR	-29.88667	-50.26972	34628
Osasco	Osasco	BR	-23.5325	-46.79167	677856
Orleans	Orleans	BR	-28.35889	-49.29139	16422
Oliveira	Oliveira	BR	-20.69639	-44.82722	34710
Olímpia	Olímpia	BR	-20.73722	-48.91472	45199
Novo Hamburgo	Novo Hamburgo	BR	-29.67833	-51.13056	253841
Nova Viçosa	Nova Viçosa	BR	-17.89194	-39.37194	55980
Nova Prata	Nova Prata	BR	-28.78389	-51.61	17943
Nova Lima	Nova Lima	BR	-19.98556	-43.84667	88399
Nova Iguaçu	Nova Iguaçu	BR	-22.75917	-43.45111	1002118
Nova Granada	Nova Granada	BR	-20.53389	-49.31417	15715
Nova Friburgo	Nova Friburgo	BR	-22.28194	-42.53111	153361
Nova Era	Nova Era	BR	-19.75	-43.0375	15595
Nossa Senhora do Socorro	Nossa Senhora do Socorro	BR	-10.855	-37.12611	163993
Niterói	Niterói	BR	-22.88333	-43.10361	456456
Niquelândia	Niquelândia	BR	-14.47389	-48.45972	27541
Nilópolis	Nilópolis	BR	-22.8075	-43.41389	147281
Nerópolis	Nerópolis	BR	-16.40639	-49.21861	21870
Nazaré	Nazaré	BR	-13.035	-39.01444	25604
Naviraí	Naviraí	BR	-23.065	-54.19056	36452
Navegantes	Navegantes	BR	-26.89889	-48.65417	47781
Nanuque	Nanuque	BR	-17.83917	-40.35389	37824
Muriaé	Muriaé	BR	-21.13056	-42.36639	91173
Mucuri	Mucuri	BR	-18.08639	-39.55083	26775
Morro do Chapéu	Morro do Chapéu	BR	-11.54852	-41.15804	21670
Montes Claros	Montes Claros	BR	-16.735	-43.86167	332379
Monte Santo de Minas	Monte Santo de Minas	BR	-21.18972	-46.98028	16617
Montenegro	Montenegro	BR	-29.68861	-51.46111	54057
Monte Carmelo	Monte Carmelo	BR	-18.72472	-47.49861	44041
Monte Azul Paulista	Monte Azul Paulista	BR	-20.90722	-48.64139	18117
Monte Alto	Monte Alto	BR	-21.26111	-48.49639	41893
Mogi Mirim	Mogi Mirim	BR	-22.43194	-46.95778	78244
Mogi-Gaucu	Mogi-Gaucu	BR	-22.3677	-46.94552	128865
Mogi das Cruzes	Mogi das Cruzes	BR	-23.52278	-46.18833	325746
Mococa	Mococa	BR	-21.46778	-47.00472	59654
Mirandopólis	Mirandopólis	BR	-21.13361	-51.10167	23378
Miracema	Miracema	BR	-21.41222	-42.19667	26684
Medianeira	Medianeira	BR	-25.29528	-54.09389	34069
Mauá	Mauá	BR	-23.66778	-46.46139	386069
Matozinhos	Matozinhos	BR	-19.55778	-44.08139	30843
Mateus Leme	Mateus Leme	BR	-19.98639	-44.42778	24890
Matão	Matão	BR	-21.60333	-48.36583	72468
Mata de São João	Mata de São João	BR	-12.53028	-38.29917	26679
Martinópolis	Martinópolis	BR	-22.14583	-51.17083	18488
Maringá	Maringá	BR	-23.42528	-51.93861	311724
Marília	Marília	BR	-22.21389	-49.94583	212218
Mariana	Mariana	BR	-20.37778	-43.41611	45236
Marechal Cândido Rondon	Marechal Cândido Rondon	BR	-24.55611	-54.05667	43028
Maragogipe	Maragogipe	BR	-12.77778	-38.91944	20921
Maracaju	Maracaju	BR	-21.61444	-55.16833	22690
Manhuaçu	Manhuaçu	BR	-20.25806	-42.03361	54607
Mangaratiba	Mangaratiba	BR	-22.95972	-44.04056	27022
Mandaguari	Mandaguari	BR	-23.5475	-51.67083	38238
Mairiporã	Mairiporã	BR	-23.31861	-46.58667	54415
Mairinque	Mairinque	BR	-23.54583	-47.18333	44456
Mafra	Mafra	BR	-26.11139	-49.80528	40081
Macatuba	Macatuba	BR	-22.50222	-48.71139	16179
Macaé	Macaé	BR	-22.37083	-41.78694	143029
Luziânia	Luziânia	BR	-16.2525	-47.95028	143601
Lucas	Lucas	BR	-16.33333	-55.93333	27665
Lorena	Lorena	BR	-22.73083	-45.12472	76506
Londrina	Londrina	BR	-23.31028	-51.16278	471832
Loanda	Loanda	BR	-22.92306	-53.13722	18233
Livramento do Brumado	Livramento do Brumado	BR	-13.65145	-41.84564	19914
Lins	Lins	BR	-21.67861	-49.7425	69451
Linhares	Linhares	BR	-19.39111	-40.07222	105075
Limeira	Limeira	BR	-22.56472	-47.40167	289665
Leopoldina	Leopoldina	BR	-21.53194	-42.64306	46742
Lençóis Paulista	Lençóis Paulista	BR	-22.59861	-48.80028	57375
Leme	Leme	BR	-22.18556	-47.39028	81209
Lavras	Lavras	BR	-21.24528	-44.99972	81472
Laranjeiras do Sul	Laranjeiras do Sul	BR	-25.40778	-52.41611	18424
Laranjeiras	Laranjeiras	BR	-10.80639	-37.17	23251
Laranjal Paulista	Laranjal Paulista	BR	-23.04972	-47.83667	21264
Lapa	Lapa	BR	-25.76972	-49.71583	25621
Lajinha	Lajinha	BR	-20.15139	-41.62278	15729
Lages	Lages	BR	-27.81611	-50.32611	164676
Lajeado	Lajeado	BR	-29.46694	-51.96139	65407
Laguna	Laguna	BR	-28.4825	-48.78083	39711
Lagoa Vermelha	Lagoa Vermelha	BR	-28.20861	-51.52583	24445
Lagoa Santa	Lagoa Santa	BR	-19.63006	-43.9009	38486
Jundiaí	Jundiaí	BR	-23.18639	-46.88417	321589
Júlio de Castilhos	Júlio de Castilhos	BR	-29.22694	-53.68167	20388
Juiz de Fora	Juiz de Fora	BR	-21.76417	-43.35028	470193
Joinville	Joinville	BR	-26.30444	-48.84556	461304
João Pinheiro	João Pinheiro	BR	-17.7425	-46.1725	28080
João Monlevade	João Monlevade	BR	-19.81	-43.17361	72762
Joaçaba	Joaçaba	BR	-27.17806	-51.50472	23516
Jeremoabo	Jeremoabo	BR	-10.075	-38.48083	16642
Jequitinhonha	Jequitinhonha	BR	-16.43389	-41.00333	15463
Jequié	Jequié	BR	-13.85875	-40.08512	127475
Jaú	Jaú	BR	-22.29639	-48.55778	119206
Jataí	Jataí	BR	-17.87939	-51.72166	76547
Jardim	Jardim	BR	-21.48028	-56.13806	23780
Jaraguá do Sul	Jaraguá do Sul	BR	-26.48611	-49.06667	130130
Jaraguá	Jaraguá	BR	-15.75694	-49.33444	30409
Januária	Januária	BR	-15.48866	-44.35988	34811
Jandaia do Sul	Jandaia do Sul	BR	-23.60306	-51.64333	17507
Jales	Jales	BR	-20.26889	-50.54583	43831
Jaguariúna	Jaguariúna	BR	-22.70556	-46.98583	31717
Jaguariaíva	Jaguariaíva	BR	-24.24423	-49.70932	30626
Jaguarari	Jaguarari	BR	-10.26389	-40.19583	22612
Jacobina	Jacobina	BR	-11.18143	-40.51372	47637
Jacarezinho	Jacarezinho	BR	-23.16056	-49.96944	35090
Jacareí	Jacareí	BR	-23.30528	-45.96583	213110
Jaboticabal	Jaboticabal	BR	-21.25472	-48.32222	69394
Ivoti	Ivoti	BR	-29.59111	-51.16056	18171
Iturama	Iturama	BR	-19.72806	-50.19556	29805
Itumbiara	Itumbiara	BR	-18.41917	-49.21528	79582
Ituiutaba	Ituiutaba	BR	-18.97428	-49.46212	85345
Ituberá	Ituberá	BR	-13.73222	-39.14917	19887
Itu	Itu	BR	-23.26417	-47.29917	137586
Itororó	Itororó	BR	-15.11694	-40.07028	17324
Itaúna	Itaúna	BR	-20.07528	-44.57639	77400
Itatinga	Itatinga	BR	-23.10167	-48.61583	15696
Itararé	Itararé	BR	-24.1125	-49.33167	44809
Itaqui	Itaqui	BR	-29.12528	-56.55306	34631
Itaquaquecetuba	Itaquaquecetuba	BR	-23.48611	-46.34833	336679
Itapuranga	Itapuranga	BR	-15.56222	-49.94861	19709
Itapira	Itapira	BR	-22.43611	-46.82167	61607
Itapevi	Itapevi	BR	-23.54889	-46.93417	201748
Itapeva	Itapeva	BR	-23.98222	-48.87556	62957
Itapetininga	Itapetininga	BR	-23.59167	-48.05306	126243
Itapetinga	Itapetinga	BR	-15.24889	-40.24778	59721
Itaperuna	Itaperuna	BR	-21.205	-41.88778	84435
Itapemirim	Itapemirim	BR	-21.01111	-40.83389	17536
Itapema	Itapema	BR	-27.09028	-48.61139	36761
Itapecerica da Serra	Itapecerica da Serra	BR	-23.71694	-46.84917	151605
Itaocara	Itaocara	BR	-21.66917	-42.07611	16762
Itanhaém	Itanhaém	BR	-24.18306	-46.78889	90385
Itamarandiba	Itamarandiba	BR	-17.85722	-42.85889	18063
Itajuípe	Itajuípe	BR	-14.67806	-39.375	15516
Itajubá	Itajubá	BR	-22.42556	-45.45278	81870
Itajaí	Itajaí	BR	-26.90778	-48.66194	155716
Itaí	Itaí	BR	-23.41778	-49.09056	22304
Itaguaí	Itaguaí	BR	-22.85222	-43.77528	100752
Itabuna	Itabuna	BR	-14.78556	-39.28028	205660
Itaboraí	Itaboraí	BR	-22.74444	-42.85944	182498
Itabira	Itabira	BR	-19.61917	-43.22694	99496
Itaberaí	Itaberaí	BR	-16.02028	-49.81028	22129
Itabaianinha	Itabaianinha	BR	-11.27389	-37.79	17149
Irati	Irati	BR	-25.46722	-50.65111	45830
Iracemápolis	Iracemápolis	BR	-22.58056	-47.51861	16795
Iporá	Iporá	BR	-16.44194	-51.11778	28254
Ipirá	Ipirá	BR	-12.15833	-39.73722	27217
Ipiaú	Ipiaú	BR	-14.13449	-39.73948	38762
Ipatinga	Ipatinga	BR	-19.46833	-42.53667	228746
Ipameri	Ipameri	BR	-17.72194	-48.15972	18607
Indaiatuba	Indaiatuba	BR	-23.08842	-47.2119	179911
Indaial	Indaial	BR	-26.89778	-49.23167	44359
Imbituva	Imbituva	BR	-25.23	-50.60444	19671
Imbituba	Imbituba	BR	-28.24	-48.67028	43450
Ilhéus	Ilhéus	BR	-14.79364	-39.03949	155499
Ilha Solteira	Ilha Solteira	BR	-20.43278	-51.3425	24997
Ilhabela	Ilhabela	BR	-23.77806	-45.35806	32892
Ijuí	Ijuí	BR	-28.38778	-53.91472	71202
Iguape	Iguape	BR	-24.70806	-47.55528	23784
Igrejinha	Igrejinha	BR	-29.57444	-50.79028	28679
Igaraçu do Tietê	Igaraçu do Tietê	BR	-22.50917	-48.55778	22758
Içara	Içara	BR	-28.71333	-49.3	51454
Ibotirama	Ibotirama	BR	-12.18528	-43.22056	17354
Ibiúna	Ibiúna	BR	-23.65639	-47.2225	22860
Ibirité	Ibirité	BR	-20.02194	-44.05889	141374
Ibirataia	Ibirataia	BR	-14.06694	-39.64056	19942
Ibirama	Ibirama	BR	-27.05694	-49.51778	18357
Ibiporã	Ibiporã	BR	-23.26917	-51.04806	44790
Ibicaraí	Ibicaraí	BR	-14.865	-39.5875	19574
Ibiá	Ibiá	BR	-19.47833	-46.53889	18428
Ibaté	Ibaté	BR	-21.95472	-47.99667	29550
Ibaiti	Ibaiti	BR	-23.84861	-50.18778	25796
Iaçu	Iaçu	BR	-12.76722	-40.21167	22664
Hortolândia	Hortolândia	BR	-22.85833	-47.22	203533
Herval	Herval	BR	-32.02361	-53.39556	18063
Gurupi	Gurupi	BR	-11.72917	-49.06861	64789
Guarulhos	Guarulhos	BR	-23.46278	-46.53333	1169577
Guarujá	Guarujá	BR	-23.99306	-46.25639	310424
Guaratinguetá	Guaratinguetá	BR	-22.81639	-45.1925	105880
Guarapuava	Guarapuava	BR	-25.39048	-51.46541	150850
Guarapari	Guarapari	BR	-20.65367	-40.50204	100925
Guaranésia	Guaranésia	BR	-21.29917	-46.8025	17437
Guaramirim	Guaramirim	BR	-26.47306	-49.00278	21422
Guaporé	Guaporé	BR	-28.84556	-51.89028	20050
Guapimirim	Guapimirim	BR	-22.53722	-42.98194	31202
Guanambi	Guanambi	BR	-14.22333	-42.78139	58877
Guaíra	Guaíra	BR	-20.31833	-48.31056	34092
Guaçuí	Guaçuí	BR	-20.77556	-41.67944	19786
Gravataí	Gravataí	BR	-29.94218	-50.99278	238778
Governador Valadares	Governador Valadares	BR	-18.85111	-41.94944	250878
Goiatuba	Goiatuba	BR	-18.0125	-49.35472	25925
Goiás	Goiás	BR	-15.93444	-50.14028	19098
Goianira	Goianira	BR	-16.49611	-49.42639	22822
Goiânia	Goiânia	BR	-16.67861	-49.25389	1171195
Gaspar	Gaspar	BR	-26.93139	-48.95889	33658
Gandu	Gandu	BR	-13.74389	-39.48667	21565
Frutal	Frutal	BR	-20.02472	-48.94056	40931
Franco da Rocha	Franco da Rocha	BR	-23.32167	-46.72694	108858
Francisco Beltrão	Francisco Beltrão	BR	-26.08111	-53.055	57618
Franca	Franca	BR	-20.53861	-47.40083	305041
Foz do Iguaçu	Foz do Iguaçu	BR	-25.54778	-54.58806	293523
Forquilhinha	Forquilhinha	BR	-28.7475	-49.47222	22998
Formiga	Formiga	BR	-20.46444	-45.42639	56404
Florianópolis	Florianópolis	BR	-27.59667	-48.54917	412724
Feira de Santana	Feira de Santana	BR	-12.26667	-38.96667	481911
Euclides da Cunha	Euclides da Cunha	BR	-10.5075	-39.01583	29738
Estância Velha	Estância Velha	BR	-29.64833	-51.17389	40390
Espinosa	Espinosa	BR	-14.92611	-42.81917	17548
Esmeraldas	Esmeraldas	EC	0.9592	-79.65397	165216
Erechim	Erechim	BR	-27.63461	-52.2754	96087
Entre Rios	Entre Rios	BR	-11.94194	-38.08444	27405
Encruzilhada do Sul	Encruzilhada do Sul	BR	-30.54389	-52.52194	17199
Embu Guaçu	Embu Guaçu	BR	-23.83222	-46.81139	76310
Embu	Embu	BR	-23.64889	-46.85222	221733
Elói Mendes	Elói Mendes	BR	-21.61	-45.56528	19413
Duque de Caxias	Duque de Caxias	BR	-22.78556	-43.31167	818329
Dourados	Dourados	BR	-22.22111	-54.80556	162202
Dois Vizinhos	Dois Vizinhos	BR	-25.73361	-53.05722	22766
Dois Córregos	Dois Córregos	BR	-22.36611	-48.38028	20974
Divinópolis	Divinópolis	BR	-20.14355	-44.89065	193832
Diamantino	Diamantino	BR	-14.40861	-56.44611	15699
Diamantina	Diamantina	BR	-18.24692	-43.60345	37343
Diadema	Diadema	BR	-23.68611	-46.62278	390633
Curvelo	Curvelo	BR	-18.75639	-44.43083	63954
Curitibanos	Curitibanos	BR	-27.28278	-50.58444	32141
Curitiba	Curitiba	BR	-25.42778	-49.27306	1718421
Cuiabá	Cuiabá	BR	-15.59611	-56.09667	521934
Cruzeiro do Oeste	Cruzeiro do Oeste	BR	-23.785	-53.07333	15057
Cruzeiro	Cruzeiro	BR	-22.57316	-44.97108	72022
Cruz Alta	Cruz Alta	BR	-28.63861	-53.60639	65275
Cristalina	Cristalina	BR	-16.76769	-47.6153	36531
Criciúma	Criciúma	BR	-28.6775	-49.36972	161954
Coxim	Coxim	BR	-18.50667	-54.76	30215
Cotia	Cotia	BR	-23.60389	-46.91917	174828
Coruripe	Coruripe	BR	-10.12556	-36.17556	31427
Corumbá	Corumbá	BR	-19.00917	-57.65333	96520
Coronel Fabriciano	Coronel Fabriciano	BR	-19.51861	-42.62889	100916
Coromandel	Coromandel	BR	-18.47333	-47.20028	22647
Cornélio Procópio	Cornélio Procópio	BR	-23.18111	-50.64667	48487
Corinto	Corinto	BR	-18.38083	-44.45639	22121
Cordeirópolis	Cordeirópolis	BR	-22.48194	-47.45667	25630
Contagem	Contagem	BR	-19.93167	-44.05361	627123
Conselheiro Lafaiete	Conselheiro Lafaiete	BR	-20.66028	-43.78611	111596
Congonhas	Congonhas	BR	-20.50525	-43.8588	48819
Concórdia	Concórdia	BR	-27.23417	-52.02778	55367
Conchal	Conchal	BR	-22.33028	-47.1725	21351
Conceição do Coité	Conceição do Coité	BR	-11.56389	-39.28278	35171
Conceição do Jacuípe	Conceição do Jacuípe	BR	-12.31667	-38.76667	21597
Conceição da Barra	Conceição da Barra	BR	-18.59333	-39.73222	19309
Colombo	Colombo	LK	6.93194	79.84778	648034
Colatina	Colatina	BR	-19.53944	-40.63056	101190
Coaraci	Coaraci	BR	-14.64083	-39.55111	32344
Cícero Dantas	Cícero Dantas	BR	-10.6	-38.38333	18317
Cianorte	Cianorte	BR	-23.66333	-52.605	55994
Charqueadas	Charqueadas	BR	-29.95472	-51.62528	32076
Chapecó	Chapecó	BR	-27.09639	-52.61833	160157
Caxias do Sul	Caxias do Sul	BR	-29.16806	-51.17944	381270
Catu	Catu	BR	-12.35306	-38.37889	39932
Catanduva	Catanduva	BR	-21.13778	-48.97278	109612
Cataguases	Cataguases	BR	-21.38917	-42.69667	62618
Castro	Castro	BR	-24.78927	-50.01225	42091
Castelo	Castelo	BR	-20.60361	-41.18472	20198
Casimiro de Abreu	Casimiro de Abreu	BR	-22.48056	-42.20417	19087
Cascavel	Cascavel	BR	-24.95583	-53.45528	257172
Carmo do Paranaíba	Carmo do Paranaíba	BR	-19.00083	-46.31611	26537
Carmo do Cajuru	Carmo do Cajuru	BR	-20.18417	-44.77111	16332
Carazinho	Carazinho	BR	-28.28389	-52.78639	59417
Caratinga	Caratinga	BR	-19.78972	-42.13917	60066
Carangola	Carangola	BR	-20.73306	-42.02944	25321
Carandaí	Carandaí	BR	-20.95361	-43.80639	16657
Caraguatatuba	Caraguatatuba	BR	-23.62028	-45.41306	90843
Capivari	Capivari	BR	-22.995	-47.50778	35518
Capinzal	Capinzal	BR	-27.34361	-51.61194	23795
Capelinha	Capelinha	BR	-17.69139	-42.51583	20073
Capela	Capela	BR	-10.50333	-37.05278	16023
Capão da Canoa	Capão da Canoa	BR	-29.74556	-50.00972	35896
Canoinhas	Canoinhas	BR	-26.17722	-50.39	38862
Canoas	Canoas	BR	-29.91778	-51.18361	328291
Canguçu	Canguçu	BR	-31.395	-52.67556	20134
Canela	Canela	BR	-29.35622	-50.81357	33528
Cândido Mota	Cândido Mota	BR	-22.74639	-50.38694	28144
Canavieiras	Canavieiras	BR	-15.675	-38.94722	26375
Campos Novos	Campos Novos	BR	-27.40167	-51.225	22563
Campos Gerais	Campos Gerais	BR	-21.235	-45.75861	22260
Campos do Jordão	Campos do Jordão	BR	-22.73944	-45.59139	53319
Campos Belos	Campos Belos	BR	-13.03667	-46.77167	15582
Campos	Campos	BR	-21.75227	-41.33044	387417
Campo Mourão	Campo Mourão	BR	-24.04309	-52.37929	75401
Campo Largo	Campo Largo	BR	-25.45955	-49.53014	94668
Campo Grande	Campo Grande	BR	-20.44278	-54.64639	729151
Campo Belo	Campo Belo	BR	-20.89722	-45.27722	47491
Campinas	Campinas	BR	-22.90556	-47.06083	1031554
Campina Grande do Sul	Campina Grande do Sul	BR	-25.30556	-49.05528	31112
Cambuí	Cambuí	BR	-22.61222	-46.0575	21246
Cambé	Cambé	BR	-23.27583	-51.27833	91080
Camaquã	Camaquã	BR	-30.85111	-51.81222	53169
Camanducaia	Camanducaia	BR	-22.75528	-46.14472	17822
Camaçari	Camaçari	BR	-12.6975	-38.32417	188758
Caldas Novas	Caldas Novas	BR	-17.74431	-48.62789	63675
Cajamar	Cajamar	BR	-23.35611	-46.87694	56682
Caetité	Caetité	BR	-14.06944	-42.475	27187
Caeté	Caeté	BR	-19.88	-43.66972	33231
Cachoeiro de Itapemirim	Cachoeiro de Itapemirim	BR	-20.84889	-41.11278	187019
Cachoeirinha	Cachoeirinha	BR	-29.95111	-51.09389	121084
Cachoeiras de Macacu	Cachoeiras de Macacu	BR	-22.4625	-42.65306	46177
Cachoeira do Sul	Cachoeira do Sul	BR	-30.03917	-52.89389	74694
Cachoeira	Cachoeira	BR	-12.61833	-38.95583	16145
Caçapava do Sul	Caçapava do Sul	BR	-30.51436	-53.48496	17522
Caçador	Caçador	BR	-26.77528	-51.015	63726
Cabreúva	Cabreúva	BR	-23.3075	-47.13278	38738
Cabo Frio	Cabo Frio	BR	-22.88717	-42.02622	108239
Butiá	Butiá	BR	-30.11972	-51.96222	19494
Buritis	Buritis	BR	-15.61778	-46.42333	16243
Buri	Buri	BR	-23.7975	-48.59278	15958
Buerarema	Buerarema	BR	-14.95944	-39.29972	16001
Brusque	Brusque	BR	-27.09795	-48.91281	88284
Brumado	Brumado	BR	-14.20361	-41.66528	41989
Brodósqui	Brodósqui	BR	-20.99139	-47.65861	18366
Brasília	Brasília	BR	-15.77972	-47.92972	2207718
Bragança Paulista	Bragança Paulista	BR	-22.9527	-46.54418	125096
Braço do Norte	Braço do Norte	BR	-28.275	-49.16556	22374
Botucatu	Botucatu	BR	-22.88583	-48.445	113862
Bom Jesus do Itabapoana	Bom Jesus do Itabapoana	BR	-21.13389	-41.67972	30821
Bom Jesus da Lapa	Bom Jesus da Lapa	BR	-13.255	-43.41806	40691
Bom Despacho	Bom Despacho	BR	-19.73639	-45.25222	40303
Bocaiúva	Bocaiúva	BR	-17.10778	-43.815	32114
Boa Esperança	Boa Esperança	BR	-21.09	-45.56583	33840
Blumenau	Blumenau	BR	-26.91944	-49.06611	293949
Biritiba Mirim	Biritiba Mirim	BR	-23.5725	-46.03861	26459
Birigui	Birigui	BR	-21.28861	-50.34	102277
Biguaçu	Biguaçu	BR	-27.49417	-48.65556	51992
Betim	Betim	BR	-19.96778	-44.19833	384000
Bertioga	Bertioga	BR	-23.85444	-46.13861	35759
Bento Gonçalves	Bento Gonçalves	BR	-29.17139	-51.51917	90852
Belo Horizonte	Belo Horizonte	BR	-19.92083	-43.93778	2373224
Belford Roxo	Belford Roxo	BR	-22.76417	-43.39944	466096
Bela Vista	Bela Vista	BR	-22.10889	-56.52111	18127
Bebedouro	Bebedouro	BR	-20.94944	-48.47917	71862
Bauru	Bauru	BR	-22.31472	-49.06056	335024
Batatais	Batatais	BR	-20.89111	-47.585	51976
Barueri	Barueri	BR	-23.51056	-46.87611	251994
Barroso	Barroso	BR	-21.18694	-43.97583	16975
Barretos	Barretos	BR	-20.55722	-48.56778	101220
Barreiras	Barreiras	BR	-12.15278	-44.99	158292
Barra Mansa	Barra Mansa	BR	-22.54417	-44.17139	164052
Barra do Piraí	Barra do Piraí	BR	-22.47	-43.82556	87668
Barra do Garças	Barra do Garças	BR	-15.89	-52.25667	52398
Barra do Bugres	Barra do Bugres	BR	-15.0725	-57.18111	31311
Barra de São Francisco	Barra de São Francisco	BR	-18.755	-40.89083	20743
Barra	Barra	BR	-11.08944	-43.14167	20894
Bariri	Bariri	BR	-22.07444	-48.74028	28801
Barbacena	Barbacena	BR	-21.22583	-43.77361	122211
Barão de Cocais	Barão de Cocais	BR	-19.94583	-43.48722	22387
Bambuí	Bambuí	BR	-20.00639	-45.97694	18840
Balneário Camboriú	Balneário Camboriú	BR	-26.99056	-48.63472	49100
Baixo Guandu	Baixo Guandu	BR	-19.51889	-41.01583	19292
Bagé	Bagé	BR	-31.33139	-54.10694	98940
Atibaia	Atibaia	BR	-23.11694	-46.55028	110968
Astorga	Astorga	BR	-23.2325	-51.66556	20128
Assis	Assis	BR	-22.66167	-50.41222	101597
Arujá	Arujá	BR	-23.39611	-46.32083	72077
Artur Nogueira	Artur Nogueira	BR	-22.57306	-47.1725	40403
Arroio Grande	Arroio Grande	BR	-32.2375	-53.08694	16117
Arroio do Meio	Arroio do Meio	BR	-29.40111	-51.945	16331
Arraial do Cabo	Arraial do Cabo	BR	-22.96611	-42.02778	26163
Armação de Búzios	Armação de Búzios	BR	-22.74694	-41.88167	23463
Arcos	Arcos	BR	-20.28194	-45.53944	33355
Araxá	Araxá	BR	-19.59333	-46.94056	82595
Araucária	Araucária	BR	-25.59306	-49.41028	111302
Araruama	Araruama	BR	-22.87278	-42.34306	109637
Araras	Araras	BR	-22.35694	-47.38417	107463
Araraquara	Araraquara	BR	-21.79444	-48.17556	168468
Araranguá	Araranguá	BR	-28.93575	-49.49538	43444
Arapongas	Arapongas	BR	-23.41944	-51.42444	97512
Araguari	Araguari	BR	-18.64722	-48.18722	96565
Araçuaí	Araçuaí	BR	-16.84972	-42.07028	22005
Aracruz	Aracruz	BR	-19.82028	-40.27333	58271
Araçoiaba da Serra	Araçoiaba da Serra	BR	-23.50528	-47.61417	15395
Araci	Araci	BR	-11.33333	-38.96667	15088
Araçatuba	Araçatuba	BR	-21.20889	-50.43278	170024
Aracaju	Aracaju	BR	-10.91111	-37.07167	490175
Aquidauana	Aquidauana	BR	-20.47111	-55.78722	35303
Apucarana	Apucarana	BR	-23.55083	-51.46083	107085
Apiaí	Apiaí	BR	-24.50944	-48.8425	18259
Aparecida do Taboado	Aparecida do Taboado	BR	-20.08667	-51.09361	17332
Aparecida	Aparecida	BR	-22.84694	-45.22972	34237
Antonina	Antonina	BR	-25.42861	-48.71194	16152
Anicuns	Anicuns	BR	-16.46111	-49.96167	15684
Angra dos Reis	Angra dos Reis	BR	-23.00667	-44.31806	153635
Andradas	Andradas	BR	-22.06806	-46.56917	26772
Anápolis	Anápolis	BR	-16.32667	-48.95278	319587
Amparo	Amparo	BR	-22.70111	-46.76444	41497
Americana	Americana	BR	-22.73917	-47.33139	196022
Almirante Tamandaré	Almirante Tamandaré	BR	-25.32472	-49.31	89499
Almenara	Almenara	BR	-16.18361	-40.69444	29333
Alfenas	Alfenas	BR	-21.42917	-45.94722	71406
Além Paraíba	Além Paraíba	BR	-21.88778	-42.70444	33907
Alegrete	Alegrete	BR	-29.78306	-55.79194	87236
Alagoinhas	Alagoinhas	BR	-12.13556	-38.41917	122688
Aimorés	Aimorés	BR	-19.49583	-41.06389	19133
Águas Vermelhas	Águas Vermelhas	BR	-15.74722	-41.46	16409
Aguaí	Aguaí	BR	-22.05944	-46.97861	27503
Abaeté	Abaeté	BR	-19.16	-45.44583	20370
Guaíba	Guaíba	BR	-30.11389	-51.325	101024
Tefé	Tefé	BR	-3.36841	-64.72054	44942
Tarauacá	Tarauacá	BR	-8.16139	-70.76556	16526
Tabatinga	Tabatinga	BR	-4.23116	-69.93858	28229
Sena Madureira	Sena Madureira	BR	-9.06341	-68.67245	20516
São Gabriel da Cachoeira	São Gabriel da Cachoeira	BR	-0.1181	-67.08527	15231
Rio Branco	Rio Branco	BR	-9.97472	-67.81	257642
Porto Velho	Porto Velho	BR	-8.76194	-63.90389	306180
Manaus	Manaus	BR	-3.10194	-60.025	1598210
Manacapuru	Manacapuru	BR	-3.29972	-60.62056	52459
Humaitá	Humaitá	BR	-7.51651	-63.03105	31206
Fonte Boa	Fonte Boa	BR	-2.51389	-66.09167	16060
Eirunepé	Eirunepé	BR	-6.66028	-69.87361	17175
Cruzeiro do Sul	Cruzeiro do Sul	BR	-7.62759	-72.67756	79819
Coari	Coari	BR	-4.085	-63.14139	50490
Carauari	Carauari	BR	-4.88278	-66.89583	18059
Boa Vista	Boa Vista	BR	2.81972	-60.67333	235150
Ariquemes	Ariquemes	BR	-9.91333	-63.04083	58096
Aripuanã	Aripuanã	BR	-9.16667	-60.63333	26983
Vilhena	Vilhena	BR	-12.74056	-60.14583	63231
Pôsto Fiscal Rolim de Moura	Pôsto Fiscal Rolim de Moura	BR	-13.08271	-62.27726	37949
Pimenta Bueno	Pimenta Bueno	BR	-11.6725	-61.19361	25762
Ouro Preto do Oeste	Ouro Preto do Oeste	BR	-10.74806	-62.21583	26683
Ji Paraná	Ji Paraná	BR	-10.88528	-61.95167	107697
Jaru	Jaru	BR	-10.43889	-62.46639	28015
Guajará Mirim	Guajará Mirim	BR	-10.78278	-65.33944	34119
Cacoal	Cacoal	BR	-11.43861	-61.44722	55560
Aparecida de Goiânia	Aparecida de Goiânia	BR	-16.82333	-49.24389	510770
Jaboatão dos Guararapes	Jaboatão dos Guararapes	BR	-8.11278	-35.01472	630008
Sinop	Sinop	BR	-11.86417	-55.5025	116013
Nassau	Nassau	BS	25.05823	-77.34306	227940
Lucaya	Lucaya	BS	26.53333	-78.66667	46525
Freeport	Freeport	US	40.6576	-73.58318	42860
Thimphu	Thimphu	BT	27.46609	89.64191	98676
Punākha	Punākha	BT	27.59137	89.87743	21500
Phuntsholing	Phuntsholing	BT	26.85164	89.38837	17043
Tsirang	Tsirang	BT	27.0219	90.12291	18667
Tonota	Tonota	BW	-21.44236	27.46153	17759
Thamaga	Thamaga	BW	-24.67014	25.53975	20756
Serowe	Serowe	BW	-22.38754	26.71077	47419
Selebi-Phikwe	Selebi-Phikwe	BW	-21.97895	27.84296	53727
Ramotswa	Ramotswa	BW	-24.87158	25.86989	21450
Palapye	Palapye	BW	-22.54605	27.12507	30650
Mosopa	Mosopa	BW	-24.7718	25.42156	19561
Molepolole	Molepolole	BW	-24.40659	25.49508	63248
Mogoditshane	Mogoditshane	BW	-24.62694	25.86556	43394
Mochudi	Mochudi	BW	-24.41667	26.15	36962
Maun	Maun	BW	-19.98333	23.41667	49945
Mahalapye	Mahalapye	BW	-23.10407	26.81421	44471
Lobatse	Lobatse	BW	-25.22435	25.67728	30883
Letlhakane	Letlhakane	BW	-21.41494	25.59263	18136
Kanye	Kanye	BW	-24.96675	25.33273	44716
Gaborone	Gaborone	BW	-24.65451	25.90859	208411
Francistown	Francistown	BW	-21.16995	27.50787	89979
Horad Zhodzina	Horad Zhodzina	BY	54.0985	28.3331	61007
Zhlobin	Zhlobin	BY	52.8926	30.024	73089
Vitebsk	Vitebsk	BY	55.1904	30.2049	342700
Vilyeyka	Vilyeyka	BY	54.4914	26.9111	30000
Vawkavysk	Vawkavysk	BY	53.1561	24.4513	47300
Svyetlahorsk	Svyetlahorsk	BY	52.6329	29.7389	71250
Stowbtsy	Stowbtsy	BY	53.4785	26.7434	15500
Smarhon’	Smarhon’	BY	54.4798	26.3957	36900
Slutsk	Slutsk	BY	53.0274	27.5597	62228
Slonim	Slonim	BY	53.0869	25.3163	51434
Shchuchin	Shchuchin	BY	53.6014	24.7465	15700
Salihorsk	Salihorsk	BY	52.7876	27.5415	101614
Rahachow	Rahachow	BY	53.0934	30.0495	34700
Rechytsa	Rechytsa	BY	52.3617	30.3916	65400
Pruzhany	Pruzhany	BY	52.556	24.4573	19135
Polatsk	Polatsk	BY	55.4879	28.7856	82258
Pinsk	Pinsk	BY	52.1229	26.0951	130777
Pastavy	Pastavy	BY	55.11676	26.83263	20218
Asipovichy	Asipovichy	BY	53.3011	28.6386	34591
Orsha	Orsha	BY	54.5081	30.4172	125347
Novoye Medvezhino	Novoye Medvezhino	BY	53.88333	27.45	120000
Navapolatsk	Navapolatsk	BY	55.5318	28.5987	100885
Navahrudak	Navahrudak	BY	53.5942	25.8191	30748
Minsk	Minsk	BY	53.9	27.56667	1742124
Mazyr	Mazyr	BY	52.0495	29.2456	112137
Masty	Masty	BY	53.4122	24.5387	16102
Mar’’ina Horka	Mar’’ina Horka	BY	53.509	28.147	20100
Maladzyechna	Maladzyechna	BY	54.3167	26.854	101300
Mahilyow	Mahilyow	BY	53.9168	30.3449	369200
Lyepyel’	Lyepyel’	BY	54.8814	28.699	17400
Luninyets	Luninyets	BY	52.2472	26.8047	25000
Lida	Lida	BY	53.88333	25.29972	98036
Krychaw	Krychaw	BY	53.7125	31.717	27681
Kalodzishchy	Kalodzishchy	BY	53.944	27.7823	17000
Kobryn	Kobryn	BY	52.2138	24.3564	50691
Kalinkavichy	Kalinkavichy	BY	52.1323	29.3257	37190
Ivatsevichy	Ivatsevichy	BY	52.709	25.3401	24200
Hrodna	Hrodna	BY	53.6884	23.8258	317365
Horki	Horki	BY	54.2862	30.9863	33897
Gomel	Gomel	BY	52.4345	30.9754	480951
Hlybokaye	Hlybokaye	BY	55.1384	27.6905	22000
Dzyarzhynsk	Dzyarzhynsk	BY	53.6832	27.138	24609
Dobrush	Dobrush	BY	52.4089	31.3237	19083
Bykhaw	Bykhaw	BY	53.521	30.2454	17500
Byaroza	Byaroza	BY	52.5314	24.9786	29645
Brest	Brest	BY	52.09755	23.68775	300715
Horad Barysaw	Horad Barysaw	BY	54.2279	28.505	100000
Baranovichi	Baranovichi	BY	53.1327	26.0139	168772
Babruysk	Babruysk	BY	53.1384	29.2214	220517
Malinovka	Malinovka	BY	53.8579	27.4374	105000
San Ignacio	San Ignacio	BZ	17.15297	-89.08058	16812
Orange Walk	Orange Walk	BZ	18.08124	-88.56328	15298
Belmopan	Belmopan	BZ	17.25	-88.76667	13381
Belize City	Belize City	BZ	17.49952	-88.19756	61461
Abbotsford	Abbotsford	CA	49.05798	-122.25257	151683
Airdrie	Airdrie	GB	55.86602	-3.98025	35440
Ajax	Ajax	CA	43.85012	-79.03288	90167
Alma	Alma	CA	48.55009	-71.6491	29526
Amos	Amos	CA	48.56688	-78.11624	17918
Baie-Comeau	Baie-Comeau	CA	49.21679	-68.14894	29808
Barrie	Barrie	CA	44.40011	-79.66634	182041
Beaconsfield	Beaconsfield	CA	45.43341	-73.86586	19194
Belleville	Belleville	CA	44.16682	-77.38277	49454
Beloeil	Beloeil	CA	45.56678	-73.19915	18927
Boucherville	Boucherville	CA	45.59104	-73.43605	39062
Brampton	Brampton	CA	43.68341	-79.76633	433806
Brandon	Brandon	US	27.9378	-82.28592	103483
Brantford	Brantford	CA	43.1334	-80.26636	87759
Brockville	Brockville	CA	44.59132	-75.68705	23886
Brossard	Brossard	CA	45.45008	-73.46583	69575
Burlington	Burlington	CA	43.38621	-79.83713	164415
Burnaby	Burnaby	CA	49.26636	-122.95263	202799
Calgary	Calgary	CA	51.05011	-114.08529	1019942
Cambridge	Cambridge	GB	52.2	0.11667	128488
Campbell River	Campbell River	CA	50.01634	-125.24459	33430
Camrose	Camrose	CA	53.01684	-112.83525	15686
Candiac	Candiac	CA	45.38338	-73.51587	15947
Chambly	Chambly	CA	45.45008	-73.28246	22608
Charlottetown	Charlottetown	CA	46.23525	-63.12671	42402
Châteauguay	Châteauguay	CA	45.38338	-73.74919	42786
Chilliwack	Chilliwack	CA	49.16638	-121.95257	77000
Cobourg	Cobourg	CA	43.95977	-78.16515	18099
Cochrane	Cochrane	CA	51.18341	-114.46871	16365
Collingwood	Collingwood	CA	44.4834	-80.21638	15809
Conception Bay South	Conception Bay South	CA	47.49989	-52.99806	17087
Coquitlam	Coquitlam	CA	49.28297	-122.75262	114565
Corner Brook	Corner Brook	CA	48.95001	-57.95202	18693
Cornwall	Cornwall	CA	45.01809	-74.72815	48821
Courtenay	Courtenay	CA	49.68657	-124.9936	32793
Cranbrook	Cranbrook	CA	49.49991	-115.76879	18610
Dartmouth	Dartmouth	CA	44.67134	-63.57719	101343
Delta	Delta	CA	49.14399	-122.9068	101668
Dieppe	Dieppe	FR	49.93333	1.08333	35707
Dollard-Des Ormeaux	Dollard-Des Ormeaux	CA	45.49452	-73.82419	48930
Dorval	Dorval	CA	45.4473	-73.75335	18088
Drummondville	Drummondville	CA	45.88336	-72.48241	59489
Duncan	Duncan	US	34.5023	-97.95781	23431
Edmonton	Edmonton	CA	53.55014	-113.46871	712391
Etobicoke	Etobicoke	CA	43.65421	-79.56711	347948
Fort Erie	Fort Erie	CA	42.90012	-78.93286	15953
Fort McMurray	Fort McMurray	CA	56.72676	-111.38103	76000
Fort St. John	Fort St. John	CA	56.24988	-120.85292	17402
Fredericton	Fredericton	CA	45.94541	-66.66558	52337
Gatineau	Gatineau	CA	45.47723	-75.70164	242124
Glace Bay	Glace Bay	CA	46.19695	-59.95698	19968
Granby	Granby	CA	45.40008	-72.73243	53979
Grande Prairie	Grande Prairie	CA	55.16667	-118.80271	41462
Greater Sudbury	Greater Sudbury	CA	46.49	-80.99001	157857
Greater Napanee	Greater Napanee	CA	44.25012	-76.94944	15132
Guelph	Guelph	CA	43.54594	-80.25599	115760
Huntsville	Huntsville	US	34.73037	-86.5861	180105
Joliette	Joliette	CA	46.01677	-73.44915	34772
Kamloops	Kamloops	CA	50.66648	-120.3192	68714
Kelowna	Kelowna	CA	49.88307	-119.48568	125109
Kingston	Kingston	JM	17.99702	-76.79358	937700
Kirkland	Kirkland	US	47.68149	-122.20874	48787
Kitchener	Kitchener	CA	43.42537	-80.5112	233700
Langford	Langford	CA	48.44963	-123.50261	22459
Langley	Langley	CA	49.08297	-122.58589	93726
La Prairie	La Prairie	CA	45.41678	-73.49917	21763
Laval	Laval	CA	45.56995	-73.692	376845
Leduc	Leduc	CA	53.26682	-113.55201	15561
Lethbridge	Lethbridge	CA	49.69999	-112.81856	70617
Lloydminster	Lloydminster	CA	53.28346	-110.00157	15910
London	London	GB	51.50853	-0.12574	7556900
Longueuil	Longueuil	CA	45.53121	-73.51806	229330
Magog	Magog	CA	45.26678	-72.14909	15550
Maple Ridge	Maple Ridge	CA	49.21939	-122.60193	70000
Markham	Markham	CA	43.86682	-79.2663	261573
Mascouche	Mascouche	CA	45.74965	-73.59956	34626
Medicine Hat	Medicine Hat	CA	50.04066	-110.67914	63138
Midland	Midland	US	31.99735	-102.07791	111147
Milton	Milton	CA	43.51681	-79.88294	84362
Mirabel	Mirabel	CA	45.65008	-74.08251	34626
Miramichi	Miramichi	CA	47.02895	-65.50186	18129
Mississauga	Mississauga	CA	43.5789	-79.6583	668549
Moncton	Moncton	CA	46.09454	-64.7965	87467
Montréal	Montréal	CA	45.50884	-73.58781	1600000
Mont-Royal	Mont-Royal	CA	45.51675	-73.64918	18933
Mont-Saint-Hilaire	Mont-Saint-Hilaire	CA	45.56678	-73.19915	15720
Moose Jaw	Moose Jaw	CA	50.40005	-105.53445	32166
Nanaimo	Nanaimo	CA	49.16638	-123.94003	84905
New Glasgow	New Glasgow	CA	45.58344	-62.64863	20322
Newmarket	Newmarket	CA	44.05011	-79.46631	74295
